[
  {
    "name": "Andaz Capital Gate, Abu Dhabi",
    "brand": {
      "key": "ANDAZ",
      "label": "Andaz",
      "bellhopRoute": "andaz"
    },
    "location": {
      "addressLine1": "Al Khaleej Al Arabi Street",
      "addressLine2": "P.O. Box 95165",
      "city": "Abu Dhabi",
      "zipcode": "",
      "stateProvince": null,
      "subRegion": null,
      "country": {
        "key": "AE",
        "label": "United Arab Emirates"
      },
      "region": {
        "key": "MIDDLE_EAST",
        "label": "Middle East"
      },
      "geolocation": {
        "latitude": 24.418626,
        "longitude": 54.434638
      }
    },
    "awardCategory": {
      "key": "3",
      "label": "3"
    },
    "lat": 24.418626,
    "lng": 54.434638,
    "url": "https://www.hyatt.com/andaz/en-US/abdcc-andaz-capital-gate-abu-dhabi"
  },
  {
    "name": "Hyatt House Allentown / Lehigh Valley",
    "brand": {
      "key": "HOUSE",
      "label": "Hyatt House",
      "bellhopRoute": "house"
    },
    "location": {
      "addressLine1": "621 Grange Road",
      "addressLine2": null,
      "city": "Allentown",
      "zipcode": "18106",
      "stateProvince": {
        "key": "PA",
        "label": "Pennsylvania"
      },
      "subRegion": null,
      "country": {
        "key": "US",
        "label": "United States"
      },
      "region": {
        "key": "NORTH_AMERICA",
        "label": "North America"
      },
      "geolocation": {
        "latitude": 40.56303,
        "longitude": -75.581779
      }
    },
    "awardCategory": {
      "key": "2",
      "label": "2"
    },
    "lat": 40.56303,
    "lng": -75.581779,
    "url": "https://www.hyatt.com/hyatt-house/en-US/abexa-hyatt-house-allentown-lehigh-valley"
  },
  {
    "name": "Hyatt Place Allentown / Lehigh Valley",
    "brand": {
      "key": "PLACE",
      "label": "Hyatt Place",
      "bellhopRoute": "place"
    },
    "location": {
      "addressLine1": "621 Grange Road",
      "addressLine2": null,
      "city": "Allentown",
      "zipcode": "18106",
      "stateProvince": {
        "key": "PA",
        "label": "Pennsylvania"
      },
      "subRegion": null,
      "country": {
        "key": "US",
        "label": "United States"
      },
      "region": {
        "key": "NORTH_AMERICA",
        "label": "North America"
      },
      "geolocation": {
        "latitude": 40.563087,
        "longitude": -75.581768
      }
    },
    "awardCategory": {
      "key": "2",
      "label": "2"
    },
    "lat": 40.563087,
    "lng": -75.581768,
    "url": "https://www.hyatt.com/hyatt-place/en-US/abeza-hyatt-place-allentown-lehigh-valley"
  },
  {
    "name": "Hyatt Place Bethlehem",
    "brand": {
      "key": "PLACE",
      "label": "Hyatt Place",
      "bellhopRoute": "place"
    },
    "location": {
      "addressLine1": "45 West North Street",
      "addressLine2": null,
      "city": "Bethlehem",
      "zipcode": "18018",
      "stateProvince": {
        "key": "PA",
        "label": "Pennsylvania"
      },
      "subRegion": null,
      "country": {
        "key": "US",
        "label": "United States"
      },
      "region": {
        "key": "NORTH_AMERICA",
        "label": "North America"
      },
      "geolocation": {
        "latitude": 40.62335,
        "longitude": -75.380158
      }
    },
    "awardCategory": {
      "key": "2",
      "label": "2"
    },
    "lat": 40.62335,
    "lng": -75.380158,
    "url": "https://www.hyatt.com/hyatt-place/en-US/abezb-hyatt-place-bethlehem"
  },
  {
    "name": "Hyatt Place Albuquerque Airport",
    "brand": {
      "key": "PLACE",
      "label": "Hyatt Place",
      "bellhopRoute": "place"
    },
    "location": {
      "addressLine1": "1400 Sunport Place SE",
      "addressLine2": null,
      "city": "Albuquerque",
      "zipcode": "87106",
      "stateProvince": {
        "key": "NM",
        "label": "New Mexico"
      },
      "subRegion": null,
      "country": {
        "key": "US",
        "label": "United States"
      },
      "region": {
        "key": "NORTH_AMERICA",
        "label": "North America"
      },
      "geolocation": {
        "latitude": 35.049005,
        "longitude": -106.633075
      }
    },
    "awardCategory": {
      "key": "2",
      "label": "2"
    },
    "lat": 35.049005,
    "lng": -106.633075,
    "url": "https://www.hyatt.com/hyatt-place/en-US/abqza-hyatt-place-albuquerque-airport"
  },
  {
    "name": "Hyatt Place Albuquerque/Uptown",
    "brand": {
      "key": "PLACE",
      "label": "Hyatt Place",
      "bellhopRoute": "place"
    },
    "location": {
      "addressLine1": "6901 Arvada Ave NE",
      "addressLine2": null,
      "city": "Albuquerque",
      "zipcode": "87110",
      "stateProvince": {
        "key": "NM",
        "label": "New Mexico"
      },
      "subRegion": null,
      "country": {
        "key": "US",
        "label": "United States"
      },
      "region": {
        "key": "NORTH_AMERICA",
        "label": "North America"
      },
      "geolocation": {
        "latitude": 35.1049,
        "longitude": -106.567586
      }
    },
    "awardCategory": {
      "key": "2",
      "label": "2"
    },
    "lat": 35.1049,
    "lng": -106.567586,
    "url": "https://www.hyatt.com/hyatt-place/en-US/abqzu-hyatt-place-albuquerque-uptown"
  },
  {
    "name": "Park Hyatt Abu Dhabi Hotel and Villas",
    "brand": {
      "key": "PARK",
      "label": "Park Hyatt",
      "bellhopRoute": "park"
    },
    "location": {
      "addressLine1": "Saadiyat Island, PO Box 52007",
      "addressLine2": null,
      "city": "Abu Dhabi",
      "zipcode": "",
      "stateProvince": null,
      "subRegion": null,
      "country": {
        "key": "AE",
        "label": "United Arab Emirates"
      },
      "region": {
        "key": "MIDDLE_EAST",
        "label": "Middle East"
      },
      "geolocation": {
        "latitude": 24.544879,
        "longitude": 54.433029
      }
    },
    "awardCategory": {
      "key": "6",
      "label": "6"
    },
    "lat": 24.544879,
    "lng": 54.433029,
    "url": "https://www.hyatt.com/en-US/hotel/united-arab-emirates/park-hyatt-abu-dhabi-hotel-and-villas/abuph"
  },
  {
    "name": "Me and All Hotel Flims",
    "brand": {
      "key": "ME_AND_ALL",
      "label": "Me and All Hotels",
      "bellhopRoute": "me_and_all"
    },
    "location": {
      "addressLine1": "Via Nova 80",
      "addressLine2": null,
      "city": "Flims",
      "zipcode": "7018",
      "stateProvince": null,
      "subRegion": null,
      "country": {
        "key": "CH",
        "label": "Switzerland"
      },
      "region": {
        "key": "EUROPE",
        "label": "Europe"
      },
      "geolocation": {
        "latitude": 46.833117,
        "longitude": 9.279926
      }
    },
    "awardCategory": {
      "key": "5",
      "label": "5"
    },
    "lat": 46.833117,
    "lng": 9.279926,
    "url": "https://www.hyatt.com/me-and-all-hotels/en-US/achjd-me-and-all-hotel-flims"
  },
  {
    "name": "Hyatt Regency İzmir İstinyePark",
    "brand": {
      "key": "REGENCY",
      "label": "Hyatt Regency",
      "bellhopRoute": "regency"
    },
    "location": {
      "addressLine1": "Bahcelerarasi Sehit Binbasi",
      "addressLine2": "Ali Resmi Tufan Sokak No 7/A",
      "city": "Izmir, Balcova",
      "zipcode": "35330",
      "stateProvince": null,
      "subRegion": null,
      "country": {
        "key": "TR",
        "label": "Türkiye"
      },
      "region": {
        "key": "EUROPE",
        "label": "Europe"
      },
      "geolocation": {
        "latitude": 38.40098,
        "longitude": 27.06867
      }
    },
    "awardCategory": {
      "key": "1",
      "label": "1"
    },
    "lat": 38.40098,
    "lng": 27.06867,
    "url": "https://www.hyatt.com/hyatt-regency/en-US/adbri-hyatt-regency-izmir-istinye-park"
  },
  {
    "name": "Hyatt Regency Addis Ababa",
    "brand": {
      "key": "REGENCY",
      "label": "Hyatt Regency",
      "bellhopRoute": "regency"
    },
    "location": {
      "addressLine1": "Meskel Square",
      "addressLine2": "P.O. Box 428 Code 1250",
      "city": "Addis Ababa",
      "zipcode": "",
      "stateProvince": null,
      "subRegion": null,
      "country": {
        "key": "ET",
        "label": "Ethiopia"
      },
      "region": {
        "key": "AFRICA",
        "label": "Africa"
      },
      "geolocation": {
        "latitude": 9.010382,
        "longitude": 38.763957
      }
    },
    "awardCategory": {
      "key": "3",
      "label": "3"
    },
    "lat": 9.010382,
    "lng": 38.763957,
    "url": "https://www.hyatt.com/hyatt-regency/en-US/addra-hyatt-regency-addis-ababa"
  },
  {
    "name": "Hyatt Regency Taghazout",
    "brand": {
      "key": "REGENCY",
      "label": "Hyatt Regency",
      "bellhopRoute": "regency"
    },
    "location": {
      "addressLine1": "Km 17 Essaouira Road",
      "addressLine2": "BP 294 Aourir, Agadir",
      "city": "Taghazout",
      "zipcode": "80750",
      "stateProvince": null,
      "subRegion": null,
      "country": {
        "key": "MA",
        "label": "Morocco"
      },
      "region": {
        "key": "AFRICA",
        "label": "Africa"
      },
      "geolocation": {
        "latitude": 30.531574,
        "longitude": -9.695391
      }
    },
    "awardCategory": {
      "key": "3",
      "label": "3"
    },
    "lat": 30.531574,
    "lng": -9.695391,
    "url": "https://www.hyatt.com/hyatt-regency/en-US/agart-hyatt-regency-taghazout"
  },
  {
    "name": "Hyatt Place Taghazout Bay",
    "brand": {
      "key": "PLACE",
      "label": "Hyatt Place",
      "bellhopRoute": "place"
    },
    "location": {
      "addressLine1": "Station Touristique de Taghazout",
      "addressLine2": "Km 17, Route d'Essaouira",
      "city": "Agadir",
      "zipcode": "80750",
      "stateProvince": null,
      "subRegion": null,
      "country": {
        "key": "MA",
        "label": "Morocco"
      },
      "region": {
        "key": "AFRICA",
        "label": "Africa"
      },
      "geolocation": {
        "latitude": 30.529242,
        "longitude": -9.687674
      }
    },
    "awardCategory": {
      "key": "2",
      "label": "2"
    },
    "lat": 30.529242,
    "lng": -9.687674,
    "url": "https://www.hyatt.com/hyatt-place/en-US/agazt-hyatt-place-taghazout-bay"
  },
  {
    "name": "La Zambra Resort",
    "brand": {
      "key": "UNBOUND",
      "label": "The Unbound Collection by Hyatt",
      "bellhopRoute": "unbound"
    },
    "location": {
      "addressLine1": "Avenida Louison Bobet, 9",
      "addressLine2": null,
      "city": "Mijas-Marbella",
      "zipcode": "29650",
      "stateProvince": null,
      "subRegion": null,
      "country": {
        "key": "ES",
        "label": "Spain"
      },
      "region": {
        "key": "EUROPE",
        "label": "Europe"
      },
      "geolocation": {
        "latitude": 36.552909,
        "longitude": -4.668942
      }
    },
    "awardCategory": {
      "key": "5",
      "label": "5"
    },
    "lat": 36.552909,
    "lng": -4.668942,
    "url": "https://www.hyatt.com/en-US/hotel/spain/la-zambra-resort/agpub"
  },
  {
    "name": "Hyatt House Augusta / Downtown",
    "brand": {
      "key": "HOUSE",
      "label": "Hyatt House",
      "bellhopRoute": "house"
    },
    "location": {
      "addressLine1": "1268 Broad St",
      "addressLine2": null,
      "city": "Augusta",
      "zipcode": "30901",
      "stateProvince": {
        "key": "GA",
        "label": "Georgia"
      },
      "subRegion": null,
      "country": {
        "key": "US",
        "label": "United States"
      },
      "region": {
        "key": "NORTH_AMERICA",
        "label": "North America"
      },
      "geolocation": {
        "latitude": 33.478112,
        "longitude": -81.974507
      }
    },
    "awardCategory": {
      "key": "5",
      "label": "5"
    },
    "lat": 33.478112,
    "lng": -81.974507,
    "url": "https://www.hyatt.com/hyatt-house/en-US/agsxa-hyatt-house-augusta-downtown"
  },
  {
    "name": "Hyatt Place Augusta",
    "brand": {
      "key": "PLACE",
      "label": "Hyatt Place",
      "bellhopRoute": "place"
    },
    "location": {
      "addressLine1": "160 Mason McKnight Junior Parkway",
      "addressLine2": null,
      "city": "Augusta",
      "zipcode": "30907",
      "stateProvince": {
        "key": "GA",
        "label": "Georgia"
      },
      "subRegion": null,
      "country": {
        "key": "US",
        "label": "United States"
      },
      "region": {
        "key": "NORTH_AMERICA",
        "label": "North America"
      },
      "geolocation": {
        "latitude": 33.490829,
        "longitude": -82.103887
      }
    },
    "awardCategory": {
      "key": "4",
      "label": "4"
    },
    "lat": 33.490829,
    "lng": -82.103887,
    "url": "https://www.hyatt.com/hyatt-place/en-US/agsza-hyatt-place-augusta"
  },
  {
    "name": "Hyatt Place Aguascalientes/Bonaterra",
    "brand": {
      "key": "PLACE",
      "label": "Hyatt Place",
      "bellhopRoute": "place"
    },
    "location": {
      "addressLine1": "José Maria Escrivá de Balaguer 1073, Col. Villas Bonaterra",
      "addressLine2": "",
      "city": "Aguascalientes",
      "zipcode": "20296",
      "stateProvince": null,
      "subRegion": null,
      "country": {
        "key": "MX",
        "label": "Mexico"
      },
      "region": {
        "key": "SOUTH_AMERICA",
        "label": "Latin America"
      },
      "geolocation": {
        "latitude": 21.825207,
        "longitude": -102.281261
      }
    },
    "awardCategory": {
      "key": "1",
      "label": "1"
    },
    "lat": 21.825207,
    "lng": -102.281261,
    "url": "https://www.hyatt.com/hyatt-place/en-US/aguza-hyatt-place-aguascalientes-bonaterra"
  },
  {
    "name": "Hyatt Place Athens / Downtown",
    "brand": {
      "key": "PLACE",
      "label": "Hyatt Place",
      "bellhopRoute": "place"
    },
    "location": {
      "addressLine1": "412 North Thomas Street",
      "addressLine2": null,
      "city": "Athens",
      "zipcode": "30601",
      "stateProvince": {
        "key": "GA",
        "label": "Georgia"
      },
      "subRegion": null,
      "country": {
        "key": "US",
        "label": "United States"
      },
      "region": {
        "key": "NORTH_AMERICA",
        "label": "North America"
      },
      "geolocation": {
        "latitude": 33.961188,
        "longitude": -83.373104
      }
    },
    "awardCategory": {
      "key": "5",
      "label": "5"
    },
    "lat": 33.961188,
    "lng": -83.373104,
    "url": "https://www.hyatt.com/hyatt-place/en-US/ahnza-hyatt-place-athens-downtown"
  },
  {
    "name": "Park Hyatt Auckland",
    "brand": {
      "key": "PARK",
      "label": "Park Hyatt",
      "bellhopRoute": "park"
    },
    "location": {
      "addressLine1": "99 Halsey Street",
      "addressLine2": "Wynyard Quarter",
      "city": "Auckland",
      "zipcode": "1010",
      "stateProvince": null,
      "subRegion": null,
      "country": {
        "key": "NZ",
        "label": "New Zealand"
      },
      "region": {
        "key": "AUSTRALIA_PACIFIC",
        "label": "Australia & Pacific"
      },
      "geolocation": {
        "latitude": -36.842041,
        "longitude": 174.757975
      }
    },
    "awardCategory": {
      "key": "6",
      "label": "6"
    },
    "lat": -36.842041,
    "lng": 174.757975,
    "url": "https://www.hyatt.com/en-US/hotel/new-zealand/park-hyatt-auckland/aklph"
  },
  {
    "name": "Alua Atlántico Golf Resort",
    "brand": {
      "key": "ALUA",
      "label": "Alua Hotels & Resorts",
      "bellhopRoute": "alua"
    },
    "location": {
      "addressLine1": "Avenida del Atlántico 11",
      "addressLine2": "Golf del Sur",
      "city": "Tenerife",
      "zipcode": "38639",
      "stateProvince": null,
      "subRegion": null,
      "country": {
        "key": "ES",
        "label": "Spain"
      },
      "region": {
        "key": "EUROPE",
        "label": "Europe"
      },
      "geolocation": {
        "latitude": 28.024075,
        "longitude": -16.609635
      }
    },
    "awardCategory": {
      "key": "A0",
      "label": "A"
    },
    "lat": 28.024075,
    "lng": -16.609635,
    "url": "https://www.hyatt.com/en-US/hotel/spain/alua-atlantico-golf-resort/alatg"
  },
  {
    "name": "Miraval Berkshires Resort and Spa",
    "brand": {
      "key": "MIRAVAL",
      "label": "Miraval",
      "bellhopRoute": "miraval"
    },
    "location": {
      "addressLine1": "55 Lee Road",
      "addressLine2": null,
      "city": "Lenox",
      "zipcode": "01240",
      "stateProvince": {
        "key": "MA",
        "label": "Massachusetts"
      },
      "subRegion": null,
      "country": {
        "key": "US",
        "label": "United States"
      },
      "region": {
        "key": "NORTH_AMERICA",
        "label": "North America"
      },
      "geolocation": {
        "latitude": 42.363806,
        "longitude": -73.266749
      }
    },
    "awardCategory": null,
    "lat": 42.363806,
    "lng": -73.266749,
    "url": "https://www.hyatt.com/en-US/hotel/massachusetts/miraval-berkshires-resort-and-spa/albob"
  },
  {
    "name": "Alua Boccaccio",
    "brand": {
      "key": "ALUA",
      "label": "Alua Hotels & Resorts",
      "bellhopRoute": "alua"
    },
    "location": {
      "addressLine1": "Avda. Pedro Mas i Reus, 3",
      "addressLine2": "Port d'Alcúdia",
      "city": "Mallorca",
      "zipcode": "07400",
      "stateProvince": null,
      "subRegion": null,
      "country": {
        "key": "ES",
        "label": "Spain"
      },
      "region": {
        "key": "EUROPE",
        "label": "Europe"
      },
      "geolocation": {
        "latitude": 39.831603,
        "longitude": 3.116281
      }
    },
    "awardCategory": {
      "key": "A0",
      "label": "A"
    },
    "lat": 39.831603,
    "lng": 3.116281,
    "url": "https://www.hyatt.com/en-US/hotel/spain/alua-boccaccio/alboc"
  },
  {
    "name": "Hyatt Place Albany/Downtown",
    "brand": {
      "key": "PLACE",
      "label": "Hyatt Place",
      "bellhopRoute": "place"
    },
    "location": {
      "addressLine1": "82 Montgomery Street",
      "addressLine2": null,
      "city": "Albany",
      "zipcode": "12207",
      "stateProvince": {
        "key": "NY",
        "label": "New York"
      },
      "subRegion": null,
      "country": {
        "key": "US",
        "label": "United States"
      },
      "region": {
        "key": "NORTH_AMERICA",
        "label": "North America"
      },
      "geolocation": {
        "latitude": 42.654753,
        "longitude": -73.747347
      }
    },
    "awardCategory": {
      "key": "2",
      "label": "2"
    },
    "lat": 42.654753,
    "lng": -73.747347,
    "url": "https://www.hyatt.com/hyatt-place/en-US/albza-hyatt-place-albany-downtown"
  },
  {
    "name": "Hyatt Place Saratoga/Malta",
    "brand": {
      "key": "PLACE",
      "label": "Hyatt Place",
      "bellhopRoute": "place"
    },
    "location": {
      "addressLine1": "20 State Farm Place",
      "addressLine2": null,
      "city": "Malta",
      "zipcode": "12020",
      "stateProvince": {
        "key": "NY",
        "label": "New York"
      },
      "subRegion": null,
      "country": {
        "key": "US",
        "label": "United States"
      },
      "region": {
        "key": "NORTH_AMERICA",
        "label": "North America"
      },
      "geolocation": {
        "latitude": 42.968199,
        "longitude": -73.811044
      }
    },
    "awardCategory": {
      "key": "2",
      "label": "2"
    },
    "lat": 42.968199,
    "lng": -73.811044,
    "url": "https://www.hyatt.com/hyatt-place/en-US/albzs-hyatt-place-saratoga-malta"
  },
  {
    "name": "Alua Gran Camp de Mar",
    "brand": {
      "key": "ALUA",
      "label": "Alua Hotels & Resorts",
      "bellhopRoute": "alua"
    },
    "location": {
      "addressLine1": "Avenida Gabriel Covas Alemany, 2",
      "addressLine2": "Camp de Mar",
      "city": "Mallorca",
      "zipcode": "07160",
      "stateProvince": null,
      "subRegion": null,
      "country": {
        "key": "ES",
        "label": "Spain"
      },
      "region": {
        "key": "EUROPE",
        "label": "Europe"
      },
      "geolocation": {
        "latitude": 39.538408,
        "longitude": 2.42145
      }
    },
    "awardCategory": {
      "key": "A0",
      "label": "A"
    },
    "lat": 39.538408,
    "lng": 2.42145,
    "url": "https://www.hyatt.com/en-US/hotel/spain/alua-camp-de-mar/alcdm"
  },
  {
    "name": "Alua Calas de Mallorca Resort",
    "brand": {
      "key": "ALUA",
      "label": "Alua Hotels & Resorts",
      "bellhopRoute": "alua"
    },
    "location": {
      "addressLine1": "Carrer de Cala Antena, s/n",
      "addressLine2": "Cales de Mallorca",
      "city": "Cales de Mallorca",
      "zipcode": "07689",
      "stateProvince": null,
      "subRegion": null,
      "country": {
        "key": "ES",
        "label": "Spain"
      },
      "region": {
        "key": "EUROPE",
        "label": "Europe"
      },
      "geolocation": {
        "latitude": 39.464214,
        "longitude": 3.281059
      }
    },
    "awardCategory": {
      "key": "A1",
      "label": "B"
    },
    "lat": 39.464214,
    "lng": 3.281059,
    "url": "https://www.hyatt.com/en-US/hotel/spain/alua-calas-de-mallorca-resort/alcma"
  },
  {
    "name": "Hyatt Regency Algiers Airport",
    "brand": {
      "key": "REGENCY",
      "label": "Hyatt Regency",
      "bellhopRoute": "regency"
    },
    "location": {
      "addressLine1": "Houari Boumediene Airport",
      "addressLine2": null,
      "city": "Algiers",
      "zipcode": "16033",
      "stateProvince": null,
      "subRegion": null,
      "country": {
        "key": "DZ",
        "label": "Algeria"
      },
      "region": {
        "key": "AFRICA",
        "label": "Africa"
      },
      "geolocation": {
        "latitude": 36.704204,
        "longitude": 3.205608
      }
    },
    "awardCategory": {
      "key": "2",
      "label": "2"
    },
    "lat": 36.704204,
    "lng": 3.205608,
    "url": "https://www.hyatt.com/hyatt-regency/en-US/algra-hyatt-regency-algiers-airport"
  },
  {
    "name": "Alua Golf Trinidad",
    "brand": {
      "key": "ALUA",
      "label": "Alua Hotels & Resorts",
      "bellhopRoute": "alua"
    },
    "location": {
      "addressLine1": "Playa Serena S/N",
      "addressLine2": null,
      "city": "Almeria",
      "zipcode": "04740",
      "stateProvince": null,
      "subRegion": null,
      "country": {
        "key": "ES",
        "label": "Spain"
      },
      "region": {
        "key": "EUROPE",
        "label": "Europe"
      },
      "geolocation": {
        "latitude": 36.723882,
        "longitude": -2.625929
      }
    },
    "awardCategory": {
      "key": "A0",
      "label": "A"
    },
    "lat": 36.723882,
    "lng": -2.625929,
    "url": "https://www.hyatt.com/en-US/hotel/spain/alua-golf-trinidad/algtr"
  },
  {
    "name": "Alua Helios Bay",
    "brand": {
      "key": "ALUA",
      "label": "Alua Hotels & Resorts",
      "bellhopRoute": "alua"
    },
    "location": {
      "addressLine1": "Tchernomorska 50",
      "addressLine2": "8250",
      "city": "Obzor",
      "zipcode": "",
      "stateProvince": null,
      "subRegion": null,
      "country": {
        "key": "BG",
        "label": "Bulgaria"
      },
      "region": {
        "key": "EUROPE",
        "label": "Europe"
      },
      "geolocation": {
        "latitude": 42.826397,
        "longitude": 27.882014
      }
    },
    "awardCategory": {
      "key": "A0",
      "label": "A"
    },
    "lat": 42.826397,
    "lng": 27.882014,
    "url": "https://www.hyatt.com/en-US/hotel/bulgaria/alua-helios-bay/alheb"
  },
  {
    "name": "Hyatt Regency Orange County",
    "brand": {
      "key": "REGENCY",
      "label": "Hyatt Regency",
      "bellhopRoute": "regency"
    },
    "location": {
      "addressLine1": "11999 Harbor Blvd.",
      "addressLine2": null,
      "city": "Garden Grove",
      "zipcode": "92840",
      "stateProvince": {
        "key": "CA",
        "label": "California"
      },
      "subRegion": null,
      "country": {
        "key": "US",
        "label": "United States"
      },
      "region": {
        "key": "NORTH_AMERICA",
        "label": "North America"
      },
      "geolocation": {
        "latitude": 33.789852,
        "longitude": -117.916404
      }
    },
    "awardCategory": {
      "key": "4",
      "label": "4"
    },
    "lat": 33.789852,
    "lng": -117.916404,
    "url": "https://www.hyatt.com/hyatt-regency/en-US/alica-hyatt-regency-orange-county"
  },
  {
    "name": "Alua Illa de Menorca",
    "brand": {
      "key": "ALUA",
      "label": "Alua Hotels & Resorts",
      "bellhopRoute": "alua"
    },
    "location": {
      "addressLine1": "10ª Avinguda, S'Algar",
      "addressLine2": "Sant Lluís",
      "city": "Menorca",
      "zipcode": "07713",
      "stateProvince": null,
      "subRegion": null,
      "country": {
        "key": "ES",
        "label": "Spain"
      },
      "region": {
        "key": "EUROPE",
        "label": "Europe"
      },
      "geolocation": {
        "latitude": 39.835659,
        "longitude": 4.297193
      }
    },
    "awardCategory": {
      "key": "A0",
      "label": "A"
    },
    "lat": 39.835659,
    "lng": 4.297193,
    "url": "https://www.hyatt.com/en-US/hotel/spain/alua-illa-menorca/alime"
  },
  {
    "name": "Alua Leo",
    "brand": {
      "key": "ALUA",
      "label": "Alua Hotels & Resorts",
      "bellhopRoute": "alua"
    },
    "location": {
      "addressLine1": "C/ Manuela de los Herreros, 12",
      "addressLine2": "Can Pastilla",
      "city": "Mallorca",
      "zipcode": "07610",
      "stateProvince": null,
      "subRegion": null,
      "country": {
        "key": "ES",
        "label": "Spain"
      },
      "region": {
        "key": "EUROPE",
        "label": "Europe"
      },
      "geolocation": {
        "latitude": 39.534453,
        "longitude": 2.72458
      }
    },
    "awardCategory": {
      "key": "A0",
      "label": "A"
    },
    "lat": 39.534453,
    "lng": 2.72458,
    "url": "https://www.hyatt.com/en-US/hotel/spain/alua-leo/alleo"
  },
  {
    "name": "Alua Suites Las Rocas",
    "brand": {
      "key": "ALUA",
      "label": "Alua Hotels & Resorts",
      "bellhopRoute": "alua"
    },
    "location": {
      "addressLine1": "Av. d'es Fortí, 107",
      "addressLine2": "Santanyí",
      "city": "Mallorca",
      "zipcode": "07660",
      "stateProvince": null,
      "subRegion": null,
      "country": {
        "key": "ES",
        "label": "Spain"
      },
      "region": {
        "key": "EUROPE",
        "label": "Europe"
      },
      "geolocation": {
        "latitude": 39.362665,
        "longitude": 3.230886
      }
    },
    "awardCategory": {
      "key": "A0",
      "label": "A"
    },
    "lat": 39.362665,
    "lng": 3.230886,
    "url": "https://www.hyatt.com/en-US/hotel/spain/alua-las-rocas/alroc"
  },
  {
    "name": "Alua Suites Fuerteventura",
    "brand": {
      "key": "ALUA",
      "label": "Alua Hotels & Resorts",
      "bellhopRoute": "alua"
    },
    "location": {
      "addressLine1": "Calle las Dunas s/n",
      "addressLine2": "Corralejo",
      "city": "Las Palmas",
      "zipcode": "35660",
      "stateProvince": null,
      "subRegion": null,
      "country": {
        "key": "ES",
        "label": "Spain"
      },
      "region": {
        "key": "EUROPE",
        "label": "Europe"
      },
      "geolocation": {
        "latitude": 28.730216,
        "longitude": -13.859365
      }
    },
    "awardCategory": {
      "key": "A0",
      "label": "A"
    },
    "lat": 28.730216,
    "lng": -13.859365,
    "url": "https://www.hyatt.com/en-US/hotel/spain/alua-suites-fuerteventura/alsfu"
  },
  {
    "name": "Alua Tenerife",
    "brand": {
      "key": "ALUA",
      "label": "Alua Hotels & Resorts",
      "bellhopRoute": "alua"
    },
    "location": {
      "addressLine1": "Calle Antonio Ruiz Alvarez 7",
      "addressLine2": null,
      "city": "Puerto de la Cruz, Tenerife",
      "zipcode": "38400",
      "stateProvince": null,
      "subRegion": null,
      "country": {
        "key": "ES",
        "label": "Spain"
      },
      "region": {
        "key": "EUROPE",
        "label": "Europe"
      },
      "geolocation": {
        "latitude": 28.41111,
        "longitude": -16.55802
      }
    },
    "awardCategory": {
      "key": "A0",
      "label": "A"
    },
    "lat": 28.41111,
    "lng": -16.55802,
    "url": "https://www.hyatt.com/en-US/hotel/spain/alua-tenerife/alten"
  },
  {
    "name": "AluaVillage Fuerteventura",
    "brand": {
      "key": "ALUA",
      "label": "Alua Hotels & Resorts",
      "bellhopRoute": "alua"
    },
    "location": {
      "addressLine1": "C/ Gran Canaria 1",
      "addressLine2": "Esquinzo",
      "city": "Las Palmas",
      "zipcode": "35626",
      "stateProvince": null,
      "subRegion": null,
      "country": {
        "key": "ES",
        "label": "Spain"
      },
      "region": {
        "key": "EUROPE",
        "label": "Europe"
      },
      "geolocation": {
        "latitude": 28.077586,
        "longitude": -14.305395
      }
    },
    "awardCategory": {
      "key": "A0",
      "label": "A"
    },
    "lat": 28.077586,
    "lng": -14.305395,
    "url": "https://www.hyatt.com/en-US/hotel/spain/alua-village-fuerteventura/alvfu"
  },
  {
    "name": "Hyatt Place Amarillo - West",
    "brand": {
      "key": "PLACE",
      "label": "Hyatt Place",
      "bellhopRoute": "place"
    },
    "location": {
      "addressLine1": "8985 W. Amarillo Blvd",
      "addressLine2": null,
      "city": "Amarillo",
      "zipcode": "79124",
      "stateProvince": {
        "key": "TX",
        "label": "Texas"
      },
      "subRegion": null,
      "country": {
        "key": "US",
        "label": "United States"
      },
      "region": {
        "key": "NORTH_AMERICA",
        "label": "North America"
      },
      "geolocation": {
        "latitude": 35.191714,
        "longitude": -101.941511
      }
    },
    "awardCategory": {
      "key": "2",
      "label": "2"
    },
    "lat": 35.191714,
    "lng": -101.941511,
    "url": "https://www.hyatt.com/hyatt-place/en-US/amaza-hyatt-place-amarillo-west"
  },
  {
    "name": "Hyatt Regency Ahmedabad",
    "brand": {
      "key": "REGENCY",
      "label": "Hyatt Regency",
      "bellhopRoute": "regency"
    },
    "location": {
      "addressLine1": "17/A, Ashram Road",
      "addressLine2": null,
      "city": "Ahmedabad",
      "zipcode": "380014",
      "stateProvince": {
        "key": "GJ",
        "label": "Gujarat"
      },
      "subRegion": null,
      "country": {
        "key": "IN",
        "label": "India"
      },
      "region": {
        "key": "ASIA",
        "label": "Asia"
      },
      "geolocation": {
        "latitude": 23.043731,
        "longitude": 72.570576
      }
    },
    "awardCategory": {
      "key": "1",
      "label": "1"
    },
    "lat": 23.043731,
    "lng": 72.570576,
    "url": "https://www.hyatt.com/hyatt-regency/en-US/amdhr-hyatt-regency-ahmedabad"
  },
  {
    "name": "Hyatt Ahmedabad",
    "brand": {
      "key": "HYATT",
      "label": "Hyatt Hotels",
      "bellhopRoute": "hyatt"
    },
    "location": {
      "addressLine1": "Next to Ahmedabad One Mall, Vastrapur",
      "addressLine2": null,
      "city": "Ahmedabad",
      "zipcode": "380015",
      "stateProvince": {
        "key": "GJ",
        "label": "Gujarat"
      },
      "subRegion": null,
      "country": {
        "key": "IN",
        "label": "India"
      },
      "region": {
        "key": "ASIA",
        "label": "Asia"
      },
      "geolocation": {
        "latitude": 23.035959,
        "longitude": 72.529387
      }
    },
    "awardCategory": {
      "key": "1",
      "label": "1"
    },
    "lat": 23.035959,
    "lng": 72.529387,
    "url": "https://www.hyatt.com/en-US/hotel/india/hyatt-ahmedabad/amdhy"
  },
  {
    "name": "Grand Hyatt Amman",
    "brand": {
      "key": "GRAND",
      "label": "Grand Hyatt",
      "bellhopRoute": "grand"
    },
    "location": {
      "addressLine1": "Hussein Bin Ali St., Jabal Amman, PO Box 831159",
      "addressLine2": null,
      "city": "Amman",
      "zipcode": "11183",
      "stateProvince": null,
      "subRegion": null,
      "country": {
        "key": "JO",
        "label": "Jordan"
      },
      "region": {
        "key": "MIDDLE_EAST",
        "label": "Middle East"
      },
      "geolocation": {
        "latitude": 31.956344,
        "longitude": 35.910068
      }
    },
    "awardCategory": {
      "key": "2",
      "label": "2"
    },
    "lat": 31.956344,
    "lng": 35.910068,
    "url": "https://www.hyatt.com/grand-hyatt/en-US/ammgh-grand-hyatt-amman"
  },
  {
    "name": "Andaz Amsterdam Prinsengracht",
    "brand": {
      "key": "ANDAZ",
      "label": "Andaz",
      "bellhopRoute": "andaz"
    },
    "location": {
      "addressLine1": "Prinsengracht 587",
      "addressLine2": null,
      "city": "Amsterdam",
      "zipcode": "1016 HT",
      "stateProvince": null,
      "subRegion": null,
      "country": {
        "key": "NL",
        "label": "Netherlands"
      },
      "region": {
        "key": "EUROPE",
        "label": "Europe"
      },
      "geolocation": {
        "latitude": 52.367803,
        "longitude": 4.882822
      }
    },
    "awardCategory": {
      "key": "6",
      "label": "6"
    },
    "lat": 52.367803,
    "lng": 4.882822,
    "url": "https://www.hyatt.com/andaz/en-US/amsaz-andaz-amsterdam-prinsengracht"
  },
  {
    "name": "Hyatt Regency Amsterdam",
    "brand": {
      "key": "REGENCY",
      "label": "Hyatt Regency",
      "bellhopRoute": "regency"
    },
    "location": {
      "addressLine1": "Sarphatistraat 104",
      "addressLine2": null,
      "city": "Amsterdam",
      "zipcode": "1018 GV",
      "stateProvince": null,
      "subRegion": null,
      "country": {
        "key": "NL",
        "label": "Netherlands"
      },
      "region": {
        "key": "EUROPE",
        "label": "Europe"
      },
      "geolocation": {
        "latitude": 52.361998,
        "longitude": 4.911776
      }
    },
    "awardCategory": {
      "key": "5",
      "label": "5"
    },
    "lat": 52.361998,
    "lng": 4.911776,
    "url": "https://www.hyatt.com/hyatt-regency/en-US/amsra-hyatt-regency-amsterdam"
  },
  {
    "name": "Hyatt Place Amsterdam Airport",
    "brand": {
      "key": "PLACE",
      "label": "Hyatt Place",
      "bellhopRoute": "place"
    },
    "location": {
      "addressLine1": "Rijnlanderweg 800",
      "addressLine2": "",
      "city": "Hoofddorp",
      "zipcode": "2132 NN",
      "stateProvince": null,
      "subRegion": null,
      "country": {
        "key": "NL",
        "label": "Netherlands"
      },
      "region": {
        "key": "EUROPE",
        "label": "Europe"
      },
      "geolocation": {
        "latitude": 52.293327,
        "longitude": 4.716042
      }
    },
    "awardCategory": {
      "key": "2",
      "label": "2"
    },
    "lat": 52.293327,
    "lng": 4.716042,
    "url": "https://www.hyatt.com/hyatt-place/en-US/amsza-hyatt-place-amsterdam-airport"
  },
  {
    "name": "Hyatt House at Anaheim Resort/Convention Center",
    "brand": {
      "key": "HOUSE",
      "label": "Hyatt House",
      "bellhopRoute": "house"
    },
    "location": {
      "addressLine1": "1800 S Harbor Blvd.\t\t",
      "addressLine2": null,
      "city": "Anaheim",
      "zipcode": "92802",
      "stateProvince": {
        "key": "CA",
        "label": "California"
      },
      "subRegion": null,
      "country": {
        "key": "US",
        "label": "United States"
      },
      "region": {
        "key": "NORTH_AMERICA",
        "label": "North America"
      },
      "geolocation": {
        "latitude": 33.802981,
        "longitude": -117.914133
      }
    },
    "awardCategory": {
      "key": "4",
      "label": "4"
    },
    "lat": 33.802981,
    "lng": -117.914133,
    "url": "https://www.hyatt.com/hyatt-house/en-US/anaxa-hyatt-house-at-anaheim-resort-convention-center"
  },
  {
    "name": "Hyatt Place at Anaheim Resort/Convention Center",
    "brand": {
      "key": "PLACE",
      "label": "Hyatt Place",
      "bellhopRoute": "place"
    },
    "location": {
      "addressLine1": "2035 S. Harbor Blvd.",
      "addressLine2": null,
      "city": "Anaheim",
      "zipcode": "92802",
      "stateProvince": {
        "key": "CA",
        "label": "California"
      },
      "subRegion": null,
      "country": {
        "key": "US",
        "label": "United States"
      },
      "region": {
        "key": "NORTH_AMERICA",
        "label": "North America"
      },
      "geolocation": {
        "latitude": 33.798379,
        "longitude": -117.915255
      }
    },
    "awardCategory": {
      "key": "4",
      "label": "4"
    },
    "lat": 33.798379,
    "lng": -117.915255,
    "url": "https://www.hyatt.com/hyatt-place/en-US/anaza-hyatt-place-at-anaheim-resort-convention-center"
  },
  {
    "name": "The Wildbirch Hotel",
    "brand": {
      "key": "JDV",
      "label": "JdV by Hyatt",
      "bellhopRoute": "jdv"
    },
    "location": {
      "addressLine1": "239 W 4th Ave",
      "addressLine2": "",
      "city": "Anchorage",
      "zipcode": "99501",
      "stateProvince": {
        "key": "AK",
        "label": "Alaska"
      },
      "subRegion": null,
      "country": {
        "key": "US",
        "label": "United States"
      },
      "region": {
        "key": "NORTH_AMERICA",
        "label": "North America"
      },
      "geolocation": {
        "latitude": 61.218987,
        "longitude": -149.886717
      }
    },
    "awardCategory": {
      "key": "4",
      "label": "4"
    },
    "lat": 61.218987,
    "lng": -149.886717,
    "url": "https://www.hyatt.com/en-US/hotel/alaska/the-wildbirch-hotel/ancjd"
  },
  {
    "name": "Hyatt House Anchorage",
    "brand": {
      "key": "HOUSE",
      "label": "Hyatt House",
      "bellhopRoute": "house"
    },
    "location": {
      "addressLine1": "5141 Business Park Blvd",
      "addressLine2": null,
      "city": "Anchorage",
      "zipcode": "99503",
      "stateProvince": {
        "key": "AK",
        "label": "Alaska"
      },
      "subRegion": null,
      "country": {
        "key": "US",
        "label": "United States"
      },
      "region": {
        "key": "NORTH_AMERICA",
        "label": "North America"
      },
      "geolocation": {
        "latitude": 61.174164,
        "longitude": -149.887906
      }
    },
    "awardCategory": {
      "key": "3",
      "label": "3"
    },
    "lat": 61.174164,
    "lng": -149.887906,
    "url": "https://www.hyatt.com/hyatt-house/en-US/ancxa-hyatt-house-anchorage"
  },
  {
    "name": "Hyatt Place Anchorage-Midtown",
    "brand": {
      "key": "PLACE",
      "label": "Hyatt Place",
      "bellhopRoute": "place"
    },
    "location": {
      "addressLine1": "101 East Tudor Road",
      "addressLine2": null,
      "city": "Anchorage",
      "zipcode": "99503",
      "stateProvince": {
        "key": "AK",
        "label": "Alaska"
      },
      "subRegion": null,
      "country": {
        "key": "US",
        "label": "United States"
      },
      "region": {
        "key": "NORTH_AMERICA",
        "label": "North America"
      },
      "geolocation": {
        "latitude": 61.18089,
        "longitude": -149.88293
      }
    },
    "awardCategory": {
      "key": "4",
      "label": "4"
    },
    "lat": 61.18089,
    "lng": -149.88293,
    "url": "https://www.hyatt.com/hyatt-place/en-US/ancza-hyatt-place-anchorage-midtown"
  },
  {
    "name": "Lindner Hotel Antwerp",
    "brand": {
      "key": "JDV",
      "label": "JdV by Hyatt",
      "bellhopRoute": "jdv"
    },
    "location": {
      "addressLine1": "Lange Kievitstraat 125",
      "addressLine2": null,
      "city": "Antwerp",
      "zipcode": "2018",
      "stateProvince": null,
      "subRegion": null,
      "country": {
        "key": "BE",
        "label": "Belgium"
      },
      "region": {
        "key": "EUROPE",
        "label": "Europe"
      },
      "geolocation": {
        "latitude": 51.213997,
        "longitude": 4.423023
      }
    },
    "awardCategory": {
      "key": "1",
      "label": "1"
    },
    "lat": 51.213997,
    "lng": 4.423023,
    "url": "https://www.hyatt.com/en-US/hotel/belgium/lindner-hotel-antwerp/anrja"
  },
  {
    "name": "Alila Napa Valley",
    "brand": {
      "key": "ALILA",
      "label": "Alila",
      "bellhopRoute": "alila"
    },
    "location": {
      "addressLine1": "1915 Main Street",
      "addressLine2": null,
      "city": "St Helena",
      "zipcode": "94574",
      "stateProvince": {
        "key": "CA",
        "label": "California"
      },
      "subRegion": null,
      "country": {
        "key": "US",
        "label": "United States"
      },
      "region": {
        "key": "NORTH_AMERICA",
        "label": "North America"
      },
      "geolocation": {
        "latitude": 38.508937,
        "longitude": -122.478889
      }
    },
    "awardCategory": {
      "key": "8",
      "label": "8"
    },
    "lat": 38.508937,
    "lng": -122.478889,
    "url": "https://www.hyatt.com/en-US/hotel/california/alila-napa-valley/apcal"
  },
  {
    "name": "Andaz Napa",
    "brand": {
      "key": "ANDAZ",
      "label": "Andaz",
      "bellhopRoute": "andaz"
    },
    "location": {
      "addressLine1": "1450 First Street",
      "addressLine2": null,
      "city": "Napa",
      "zipcode": "94559",
      "stateProvince": {
        "key": "CA",
        "label": "California"
      },
      "subRegion": null,
      "country": {
        "key": "US",
        "label": "United States"
      },
      "region": {
        "key": "NORTH_AMERICA",
        "label": "North America"
      },
      "geolocation": {
        "latitude": 38.29731,
        "longitude": -122.289232
      }
    },
    "awardCategory": {
      "key": "6",
      "label": "6"
    },
    "lat": 38.29731,
    "lng": -122.289232,
    "url": "https://www.hyatt.com/andaz/en-US/apcrn-andaz-napa"
  },
  {
    "name": "Hyatt Regency Aqaba Ayla",
    "brand": {
      "key": "REGENCY",
      "label": "Hyatt Regency",
      "bellhopRoute": "regency"
    },
    "location": {
      "addressLine1": "Marina Village, Ayla",
      "addressLine2": "P.O. Box 2370, Aqaba 77110",
      "city": "Aqaba",
      "zipcode": "",
      "stateProvince": null,
      "subRegion": null,
      "country": {
        "key": "JO",
        "label": "Jordan"
      },
      "region": {
        "key": "MIDDLE_EAST",
        "label": "Middle East"
      },
      "geolocation": {
        "latitude": 29.548822,
        "longitude": 34.989505
      }
    },
    "awardCategory": {
      "key": "3",
      "label": "3"
    },
    "lat": 29.548822,
    "lng": 34.989505,
    "url": "https://www.hyatt.com/hyatt-regency/en-US/aqjra-hyatt-regency-aqaba-ayla-resort"
  },
  {
    "name": "Story Hotel Riddargatan",
    "brand": {
      "key": "JDV",
      "label": "JdV by Hyatt",
      "bellhopRoute": "jdv"
    },
    "location": {
      "addressLine1": "Riddargatan 6",
      "addressLine2": null,
      "city": "Stockholm",
      "zipcode": "114 35",
      "stateProvince": null,
      "subRegion": null,
      "country": {
        "key": "SE",
        "label": "Sweden"
      },
      "region": {
        "key": "EUROPE",
        "label": "Europe"
      },
      "geolocation": {
        "latitude": 59.334765,
        "longitude": 18.075184
      }
    },
    "awardCategory": {
      "key": "3",
      "label": "3"
    },
    "lat": 59.334765,
    "lng": 18.075184,
    "url": "https://www.hyatt.com/en-US/hotel/sweden/story-hotel-riddargatan/arnjd"
  },
  {
    "name": "Story Hotel Signalfabriken",
    "brand": {
      "key": "JDV",
      "label": "JdV by Hyatt",
      "bellhopRoute": "jdv"
    },
    "location": {
      "addressLine1": "Sundbybergs torg 1",
      "addressLine2": null,
      "city": "Stockholm",
      "zipcode": "172 67",
      "stateProvince": null,
      "subRegion": null,
      "country": {
        "key": "SE",
        "label": "Sweden"
      },
      "region": {
        "key": "EUROPE",
        "label": "Europe"
      },
      "geolocation": {
        "latitude": 59.36173,
        "longitude": 17.96735
      }
    },
    "awardCategory": {
      "key": "1",
      "label": "1"
    },
    "lat": 59.36173,
    "lng": 17.96735,
    "url": "https://www.hyatt.com/en-US/hotel/sweden/story-hotel-signalfabriken/arnjs"
  },
  {
    "name": "Hôtel Reisen",
    "brand": {
      "key": "UNBOUND",
      "label": "The Unbound Collection by Hyatt",
      "bellhopRoute": "unbound"
    },
    "location": {
      "addressLine1": "Skeppsbron 12  ",
      "addressLine2": null,
      "city": "Stockholm",
      "zipcode": "111 30",
      "stateProvince": null,
      "subRegion": null,
      "country": {
        "key": "SE",
        "label": "Sweden"
      },
      "region": {
        "key": "EUROPE",
        "label": "Europe"
      },
      "geolocation": {
        "latitude": 59.325436,
        "longitude": 18.075385
      }
    },
    "awardCategory": {
      "key": "4",
      "label": "4"
    },
    "lat": 59.325436,
    "lng": 18.075385,
    "url": "https://www.hyatt.com/unbound-collection/en-US/arnub-hotel-reisen"
  },
  {
    "name": "Hyatt Regency Aruba Resort Spa and Casino",
    "brand": {
      "key": "REGENCY",
      "label": "Hyatt Regency",
      "bellhopRoute": "regency"
    },
    "location": {
      "addressLine1": "J.E. Irausquin Blvd 85",
      "addressLine2": null,
      "city": "Palm Beach",
      "zipcode": "",
      "stateProvince": null,
      "subRegion": null,
      "country": {
        "key": "AW",
        "label": "Aruba"
      },
      "region": {
        "key": "CARIBBEAN",
        "label": "Caribbean"
      },
      "geolocation": {
        "latitude": 12.572093,
        "longitude": -70.043742
      }
    },
    "awardCategory": {
      "key": "7",
      "label": "7"
    },
    "lat": 12.572093,
    "lng": -70.043742,
    "url": "https://www.hyatt.com/hyatt-regency/en-US/aruba-hyatt-regency-aruba-resort-spa-and-casino"
  },
  {
    "name": "AluaSoul Carolina",
    "brand": {
      "key": "ALUA",
      "label": "Alua Hotels & Resorts",
      "bellhopRoute": "alua"
    },
    "location": {
      "addressLine1": "Avda. Cala Provençals, 11",
      "addressLine2": "Cala Ratjada",
      "city": "Mallorca",
      "zipcode": "07589",
      "stateProvince": null,
      "subRegion": null,
      "country": {
        "key": "ES",
        "label": "Spain"
      },
      "region": {
        "key": "EUROPE",
        "label": "Europe"
      },
      "geolocation": {
        "latitude": 39.681395,
        "longitude": 3.450988
      }
    },
    "awardCategory": {
      "key": "A0",
      "label": "A"
    },
    "lat": 39.681395,
    "lng": 3.450988,
    "url": "https://www.hyatt.com/en-US/hotel/spain/aluasoul-carolina/ascar"
  },
  {
    "name": "AluaSoul Costa Málaga",
    "brand": {
      "key": "ALUA",
      "label": "Alua Hotels & Resorts",
      "bellhopRoute": "alua"
    },
    "location": {
      "addressLine1": "Avda. Isabel Manoja, 9",
      "addressLine2": "Torremolinos",
      "city": "Malaga",
      "zipcode": "29620 ",
      "stateProvince": null,
      "subRegion": null,
      "country": {
        "key": "ES",
        "label": "Spain"
      },
      "region": {
        "key": "EUROPE",
        "label": "Europe"
      },
      "geolocation": {
        "latitude": 36.62328,
        "longitude": -4.50136
      }
    },
    "awardCategory": {
      "key": "A0",
      "label": "A"
    },
    "lat": 36.62328,
    "lng": -4.50136,
    "url": "https://www.hyatt.com/en-US/hotel/costa-del-sol/costa-malaga-adults-recommended/ascma"
  },
  {
    "name": "AluaSoul Costa Adeje",
    "brand": {
      "key": "ALUA",
      "label": "Alua Hotels & Resorts",
      "bellhopRoute": "alua"
    },
    "location": {
      "addressLine1": "Avenida de España",
      "addressLine2": null,
      "city": "Costa Adeje",
      "zipcode": "38660",
      "stateProvince": null,
      "subRegion": null,
      "country": {
        "key": "ES",
        "label": "Spain"
      },
      "region": {
        "key": "EUROPE",
        "label": "Europe"
      },
      "geolocation": {
        "latitude": 28.081351,
        "longitude": -16.733468
      }
    },
    "awardCategory": {
      "key": "A0",
      "label": "A"
    },
    "lat": 28.081351,
    "lng": -16.733468,
    "url": "https://www.hyatt.com/en-US/hotel/spain/aluasoul-costa-adeje/ascoa"
  },
  {
    "name": "AluaSun Helios Beach",
    "brand": {
      "key": "ALUA",
      "label": "Alua Hotels & Resorts",
      "bellhopRoute": "alua"
    },
    "location": {
      "addressLine1": "Tchernomorska, 44",
      "addressLine2": null,
      "city": "Obzor",
      "zipcode": "8250",
      "stateProvince": null,
      "subRegion": null,
      "country": {
        "key": "BG",
        "label": "Bulgaria"
      },
      "region": {
        "key": "EUROPE",
        "label": "Europe"
      },
      "geolocation": {
        "latitude": 42.820958,
        "longitude": 27.881808
      }
    },
    "awardCategory": {
      "key": "A0",
      "label": "A"
    },
    "lat": 42.820958,
    "lng": 27.881808,
    "url": "https://www.hyatt.com/en-US/hotel/bulgaria/alua-sun-helios-beach/asheb"
  },
  {
    "name": "AluaSoul Ibiza",
    "brand": {
      "key": "ALUA",
      "label": "Alua Hotels & Resorts",
      "bellhopRoute": "alua"
    },
    "location": {
      "addressLine1": "Playa Es Canar, s/n, Santa Eulalia del Río",
      "addressLine2": null,
      "city": "Ibiza",
      "zipcode": "",
      "stateProvince": null,
      "subRegion": null,
      "country": {
        "key": "ES",
        "label": "Spain"
      },
      "region": {
        "key": "EUROPE",
        "label": "Europe"
      },
      "geolocation": {
        "latitude": 39.000329,
        "longitude": 1.577535
      }
    },
    "awardCategory": {
      "key": "A1",
      "label": "B"
    },
    "lat": 39.000329,
    "lng": 1.577535,
    "url": "https://www.hyatt.com/en-US/hotel/spain/aluasoul-Ibiza/asibz"
  },
  {
    "name": "AluaSoul Mallorca Resort",
    "brand": {
      "key": "ALUA",
      "label": "Alua Hotels & Resorts",
      "bellhopRoute": "alua"
    },
    "location": {
      "addressLine1": "Av. de Cala Egos, s/n",
      "addressLine2": "Cala D'or",
      "city": "Mallorca",
      "zipcode": "07660",
      "stateProvince": null,
      "subRegion": null,
      "country": {
        "key": "ES",
        "label": "Spain"
      },
      "region": {
        "key": "EUROPE",
        "label": "Europe"
      },
      "geolocation": {
        "latitude": 39.361943,
        "longitude": 3.224856
      }
    },
    "awardCategory": {
      "key": "A1",
      "label": "B"
    },
    "lat": 39.361943,
    "lng": 3.224856,
    "url": "https://www.hyatt.com/en-US/hotel/spain/aluasoul-mallorca-resort/asmal"
  },
  {
    "name": "AluaSoul Menorca",
    "brand": {
      "key": "ALUA",
      "label": "Alua Hotels & Resorts",
      "bellhopRoute": "alua"
    },
    "location": {
      "addressLine1": "3ª Avinguda",
      "addressLine2": "S'Algar",
      "city": "Menorca",
      "zipcode": "07713",
      "stateProvince": null,
      "subRegion": null,
      "country": {
        "key": "ES",
        "label": "Spain"
      },
      "region": {
        "key": "EUROPE",
        "label": "Europe"
      },
      "geolocation": {
        "latitude": 39.833511,
        "longitude": 4.298752
      }
    },
    "awardCategory": {
      "key": "A1",
      "label": "B"
    },
    "lat": 39.833511,
    "lng": 4.298752,
    "url": "https://www.hyatt.com/en-US/hotel/spain/aluasoul-menorca/asmen"
  },
  {
    "name": "AluaSoul Orotava Valley",
    "brand": {
      "key": "ALUA",
      "label": "Alua Hotels & Resorts",
      "bellhopRoute": "alua"
    },
    "location": {
      "addressLine1": "Calle Manuel Yanes Barreto, 13",
      "addressLine2": null,
      "city": "Puerto de la Cruz, Tenerife",
      "zipcode": "38400",
      "stateProvince": null,
      "subRegion": null,
      "country": {
        "key": "ES",
        "label": "Spain"
      },
      "region": {
        "key": "EUROPE",
        "label": "Europe"
      },
      "geolocation": {
        "latitude": 28.409857,
        "longitude": -16.559119
      }
    },
    "awardCategory": {
      "key": "A0",
      "label": "A"
    },
    "lat": 28.409857,
    "lng": -16.559119,
    "url": "https://www.hyatt.com/en-US/hotel/spain/aluasoul-orotava-valley/asora"
  },
  {
    "name": "AluaSoul Palma",
    "brand": {
      "key": "ALUA",
      "label": "Alua Hotels & Resorts",
      "bellhopRoute": "alua"
    },
    "location": {
      "addressLine1": "Carrer Maestro Eaktai Ahn 40",
      "addressLine2": "Palma",
      "city": "Mallorca",
      "zipcode": "07610",
      "stateProvince": null,
      "subRegion": null,
      "country": {
        "key": "ES",
        "label": "Spain"
      },
      "region": {
        "key": "EUROPE",
        "label": "Europe"
      },
      "geolocation": {
        "latitude": 39.537407,
        "longitude": 2.709786
      }
    },
    "awardCategory": {
      "key": "A0",
      "label": "A"
    },
    "lat": 39.537407,
    "lng": 2.709786,
    "url": "https://www.hyatt.com/en-US/hotel/spain/aluasoul-palma/aspmi"
  },
  {
    "name": "AluaSoul Sunny Beach",
    "brand": {
      "key": "ALUA",
      "label": "Alua Hotels & Resorts",
      "bellhopRoute": "alua"
    },
    "location": {
      "addressLine1": "Sunny Beach",
      "addressLine2": null,
      "city": "Burgas",
      "zipcode": "8240 ",
      "stateProvince": null,
      "subRegion": null,
      "country": {
        "key": "BG",
        "label": "Bulgaria"
      },
      "region": {
        "key": "EUROPE",
        "label": "Europe"
      },
      "geolocation": {
        "latitude": 42.690159,
        "longitude": 27.712113
      }
    },
    "awardCategory": null,
    "lat": 42.690159,
    "lng": 27.712113,
    "url": "https://www.hyatt.com/en-US/hotel/bulgaria/aluasoul-sunny-beach/assbr"
  },
  {
    "name": "AluaSoul Zakynthos",
    "brand": {
      "key": "ALUA",
      "label": "Alua Hotels & Resorts",
      "bellhopRoute": "alua"
    },
    "location": {
      "addressLine1": "Tragaki Amboula,  Zakynthos",
      "addressLine2": null,
      "city": "Zakynthos",
      "zipcode": "29100",
      "stateProvince": null,
      "subRegion": null,
      "country": {
        "key": "GR",
        "label": "Greece"
      },
      "region": {
        "key": "EUROPE",
        "label": "Europe"
      },
      "geolocation": {
        "latitude": 37.827266,
        "longitude": 20.847777
      }
    },
    "awardCategory": {
      "key": "A0",
      "label": "A"
    },
    "lat": 37.827266,
    "lng": 20.847777,
    "url": "https://www.hyatt.com/en-US/hotel/greece/aluasoul-plagos-beach/aszak"
  },
  {
    "name": "Grand Hyatt Athens",
    "brand": {
      "key": "GRAND",
      "label": "Grand Hyatt",
      "bellhopRoute": "grand"
    },
    "location": {
      "addressLine1": "115, Syngrou Avenue",
      "addressLine2": null,
      "city": "Athens",
      "zipcode": "11745",
      "stateProvince": null,
      "subRegion": null,
      "country": {
        "key": "GR",
        "label": "Greece"
      },
      "region": {
        "key": "EUROPE",
        "label": "Europe"
      },
      "geolocation": {
        "latitude": 37.9574,
        "longitude": 23.7182
      }
    },
    "awardCategory": {
      "key": "3",
      "label": "3"
    },
    "lat": 37.9574,
    "lng": 23.7182,
    "url": "https://www.hyatt.com/grand-hyatt/en-US/athgh-grand-hyatt-athens"
  },
  {
    "name": "Hyatt Centric Buckhead Atlanta",
    "brand": {
      "key": "CENTRIC",
      "label": "Hyatt Centric",
      "bellhopRoute": "centric"
    },
    "location": {
      "addressLine1": "3301 Lenox Square Parkway NE",
      "addressLine2": null,
      "city": "Atlanta",
      "zipcode": "30326",
      "stateProvince": {
        "key": "GA",
        "label": "Georgia"
      },
      "subRegion": null,
      "country": {
        "key": "US",
        "label": "United States"
      },
      "region": {
        "key": "NORTH_AMERICA",
        "label": "North America"
      },
      "geolocation": {
        "latitude": 33.843765,
        "longitude": -84.361645
      }
    },
    "awardCategory": {
      "key": "3",
      "label": "3"
    },
    "lat": 33.843765,
    "lng": -84.361645,
    "url": "https://www.hyatt.com/hyatt-centric/en-US/atlct-hyatt-centric-buckhead-atlanta"
  },
  {
    "name": "Grand Hyatt Atlanta in Buckhead",
    "brand": {
      "key": "GRAND",
      "label": "Grand Hyatt",
      "bellhopRoute": "grand"
    },
    "location": {
      "addressLine1": "3300 Peachtree Road NE",
      "addressLine2": null,
      "city": "Atlanta",
      "zipcode": "30305",
      "stateProvince": {
        "key": "GA",
        "label": "Georgia"
      },
      "subRegion": null,
      "country": {
        "key": "US",
        "label": "United States"
      },
      "region": {
        "key": "NORTH_AMERICA",
        "label": "North America"
      },
      "geolocation": {
        "latitude": 33.845085,
        "longitude": -84.370182
      }
    },
    "awardCategory": {
      "key": "3",
      "label": "3"
    },
    "lat": 33.845085,
    "lng": -84.370182,
    "url": "https://www.hyatt.com/grand-hyatt/en-US/atlgh-grand-hyatt-atlanta-in-buckhead"
  },
  {
    "name": "Hyatt Centric Midtown Atlanta",
    "brand": {
      "key": "CENTRIC",
      "label": "Hyatt Centric",
      "bellhopRoute": "centric"
    },
    "location": {
      "addressLine1": "125 10th Street NE",
      "addressLine2": null,
      "city": "Atlanta",
      "zipcode": "30309",
      "stateProvince": {
        "key": "GA",
        "label": "Georgia"
      },
      "subRegion": null,
      "country": {
        "key": "US",
        "label": "United States"
      },
      "region": {
        "key": "NORTH_AMERICA",
        "label": "North America"
      },
      "geolocation": {
        "latitude": 33.781516,
        "longitude": -84.382976
      }
    },
    "awardCategory": {
      "key": "3",
      "label": "3"
    },
    "lat": 33.781516,
    "lng": -84.382976,
    "url": "https://www.hyatt.com/hyatt-centric/en-US/atlhm-hyatt-centric-midtown-atlanta"
  },
  {
    "name": "Hyatt Regency Atlanta Perimeter at Villa Christina",
    "brand": {
      "key": "REGENCY",
      "label": "Hyatt Regency",
      "bellhopRoute": "regency"
    },
    "location": {
      "addressLine1": "4000 Summit Boulevard",
      "addressLine2": null,
      "city": "Atlanta",
      "zipcode": "30319",
      "stateProvince": {
        "key": "GA",
        "label": "Georgia"
      },
      "subRegion": null,
      "country": {
        "key": "US",
        "label": "United States"
      },
      "region": {
        "key": "NORTH_AMERICA",
        "label": "North America"
      },
      "geolocation": {
        "latitude": 33.913077,
        "longitude": -84.34246
      }
    },
    "awardCategory": {
      "key": "2",
      "label": "2"
    },
    "lat": 33.913077,
    "lng": -84.34246,
    "url": "https://www.hyatt.com/hyatt-regency/en-US/atlhs-hyatt-regency-atlanta-perimeter-at-villa-christina"
  },
  {
    "name": "Hyatt Regency Atlanta",
    "brand": {
      "key": "REGENCY",
      "label": "Hyatt Regency",
      "bellhopRoute": "regency"
    },
    "location": {
      "addressLine1": "265 Peachtree Street NE",
      "addressLine2": null,
      "city": "Atlanta",
      "zipcode": "30303",
      "stateProvince": {
        "key": "GA",
        "label": "Georgia"
      },
      "subRegion": null,
      "country": {
        "key": "US",
        "label": "United States"
      },
      "region": {
        "key": "NORTH_AMERICA",
        "label": "North America"
      },
      "geolocation": {
        "latitude": 33.761854,
        "longitude": -84.387279
      }
    },
    "awardCategory": {
      "key": "3",
      "label": "3"
    },
    "lat": 33.761854,
    "lng": -84.387279,
    "url": "https://www.hyatt.com/hyatt-regency/en-US/atlra-hyatt-regency-atlanta"
  },
  {
    "name": "Hyatt Regency Suites Atlanta Northwest",
    "brand": {
      "key": "REGENCY",
      "label": "Hyatt Regency",
      "bellhopRoute": "regency"
    },
    "location": {
      "addressLine1": "2999 Windy Hill Road SE",
      "addressLine2": null,
      "city": "Marietta",
      "zipcode": "30067",
      "stateProvince": {
        "key": "GA",
        "label": "Georgia"
      },
      "subRegion": null,
      "country": {
        "key": "US",
        "label": "United States"
      },
      "region": {
        "key": "NORTH_AMERICA",
        "label": "North America"
      },
      "geolocation": {
        "latitude": 33.905969,
        "longitude": -84.466205
      }
    },
    "awardCategory": {
      "key": "2",
      "label": "2"
    },
    "lat": 33.905969,
    "lng": -84.466205,
    "url": "https://www.hyatt.com/hyatt-regency/en-US/atlrs-hyatt-regency-suites-atlanta-northwest"
  },
  {
    "name": "Thompson Atlanta – Buckhead",
    "brand": {
      "key": "THOMPSON",
      "label": "Thompson Hotels",
      "bellhopRoute": "thompson"
    },
    "location": {
      "addressLine1": "415 East Paces Ferry Road",
      "addressLine2": null,
      "city": "Atlanta",
      "zipcode": "30305",
      "stateProvince": {
        "key": "GA",
        "label": "Georgia"
      },
      "subRegion": null,
      "country": {
        "key": "US",
        "label": "United States"
      },
      "region": {
        "key": "NORTH_AMERICA",
        "label": "North America"
      },
      "geolocation": {
        "latitude": 33.838215,
        "longitude": -84.374123
      }
    },
    "awardCategory": {
      "key": "5",
      "label": "5"
    },
    "lat": 33.838215,
    "lng": -84.374123,
    "url": "https://www.hyatt.com/thompson-hotels/en-US/atlth-thompson-atlanta-buckhead"
  },
  {
    "name": "Hyatt House Atlanta/Downtown",
    "brand": {
      "key": "HOUSE",
      "label": "Hyatt House",
      "bellhopRoute": "house"
    },
    "location": {
      "addressLine1": "431 Marietta Street NW",
      "addressLine2": null,
      "city": "Atlanta",
      "zipcode": "30313",
      "stateProvince": {
        "key": "GA",
        "label": "Georgia"
      },
      "subRegion": null,
      "country": {
        "key": "US",
        "label": "United States"
      },
      "region": {
        "key": "NORTH_AMERICA",
        "label": "North America"
      },
      "geolocation": {
        "latitude": 33.764889,
        "longitude": -84.396912
      }
    },
    "awardCategory": {
      "key": "3",
      "label": "3"
    },
    "lat": 33.764889,
    "lng": -84.396912,
    "url": "https://www.hyatt.com/hyatt-house/en-US/atlxd-hyatt-house-atlanta-downtown"
  },
  {
    "name": "Hyatt House Atlanta/Cobb Galleria",
    "brand": {
      "key": "HOUSE",
      "label": "Hyatt House",
      "bellhopRoute": "house"
    },
    "location": {
      "addressLine1": "3595 Cumberland Blvd SE",
      "addressLine2": null,
      "city": "Atlanta",
      "zipcode": "30339",
      "stateProvince": {
        "key": "GA",
        "label": "Georgia"
      },
      "subRegion": null,
      "country": {
        "key": "US",
        "label": "United States"
      },
      "region": {
        "key": "NORTH_AMERICA",
        "label": "North America"
      },
      "geolocation": {
        "latitude": 33.883296,
        "longitude": -84.453278
      }
    },
    "awardCategory": {
      "key": "2",
      "label": "2"
    },
    "lat": 33.883296,
    "lng": -84.453278,
    "url": "https://www.hyatt.com/hyatt-house/en-US/atlxg-hyatt-house-atlanta-cobb-galleria"
  },
  {
    "name": "Hyatt House Atlanta / Perimeter Center",
    "brand": {
      "key": "HOUSE",
      "label": "Hyatt House",
      "bellhopRoute": "house"
    },
    "location": {
      "addressLine1": "5785 Peachtree Dunwoody Rd",
      "addressLine2": null,
      "city": "Atlanta",
      "zipcode": "30342",
      "stateProvince": {
        "key": "GA",
        "label": "Georgia"
      },
      "subRegion": null,
      "country": {
        "key": "US",
        "label": "United States"
      },
      "region": {
        "key": "NORTH_AMERICA",
        "label": "North America"
      },
      "geolocation": {
        "latitude": 33.911062,
        "longitude": -84.35275
      }
    },
    "awardCategory": {
      "key": "2",
      "label": "2"
    },
    "lat": 33.911062,
    "lng": -84.35275,
    "url": "https://www.hyatt.com/hyatt-house/en-US/atlxp-hyatt-house-atlanta-perimeter-center"
  },
  {
    "name": "Hyatt Place Atlanta Airport-North",
    "brand": {
      "key": "PLACE",
      "label": "Hyatt Place",
      "bellhopRoute": "place"
    },
    "location": {
      "addressLine1": "3415 Norman Berry Drive",
      "addressLine2": null,
      "city": "East Point",
      "zipcode": "30344",
      "stateProvince": {
        "key": "GA",
        "label": "Georgia"
      },
      "subRegion": null,
      "country": {
        "key": "US",
        "label": "United States"
      },
      "region": {
        "key": "NORTH_AMERICA",
        "label": "North America"
      },
      "geolocation": {
        "latitude": 33.661826,
        "longitude": -84.428976
      }
    },
    "awardCategory": {
      "key": "1",
      "label": "1"
    },
    "lat": 33.661826,
    "lng": -84.428976,
    "url": "https://www.hyatt.com/hyatt-place/en-US/atlza-hyatt-place-atlanta-airport-north"
  },
  {
    "name": "Hyatt Place Atlanta/Buckhead",
    "brand": {
      "key": "PLACE",
      "label": "Hyatt Place",
      "bellhopRoute": "place"
    },
    "location": {
      "addressLine1": "3242 Peachtree Road NE",
      "addressLine2": null,
      "city": "Atlanta",
      "zipcode": "30305",
      "stateProvince": {
        "key": "GA",
        "label": "Georgia"
      },
      "subRegion": null,
      "country": {
        "key": "US",
        "label": "United States"
      },
      "region": {
        "key": "NORTH_AMERICA",
        "label": "North America"
      },
      "geolocation": {
        "latitude": 33.843735,
        "longitude": -84.372602
      }
    },
    "awardCategory": {
      "key": "2",
      "label": "2"
    },
    "lat": 33.843735,
    "lng": -84.372602,
    "url": "https://www.hyatt.com/hyatt-place/en-US/atlzb-hyatt-place-atlanta-buckhead"
  },
  {
    "name": "Hyatt Place Atlanta/Downtown",
    "brand": {
      "key": "PLACE",
      "label": "Hyatt Place",
      "bellhopRoute": "place"
    },
    "location": {
      "addressLine1": "330 Peachtree Street NE",
      "addressLine2": null,
      "city": "Atlanta",
      "zipcode": "30308",
      "stateProvince": {
        "key": "GA",
        "label": "Georgia"
      },
      "subRegion": null,
      "country": {
        "key": "US",
        "label": "United States"
      },
      "region": {
        "key": "NORTH_AMERICA",
        "label": "North America"
      },
      "geolocation": {
        "latitude": 33.763718,
        "longitude": -84.386898
      }
    },
    "awardCategory": {
      "key": "2",
      "label": "2"
    },
    "lat": 33.763718,
    "lng": -84.386898,
    "url": "https://www.hyatt.com/hyatt-place/en-US/atlzd-hyatt-place-atlanta-downtown"
  },
  {
    "name": "Hyatt Place Atlanta/Cobb Galleria",
    "brand": {
      "key": "PLACE",
      "label": "Hyatt Place",
      "bellhopRoute": "place"
    },
    "location": {
      "addressLine1": "2876 Spring Hill Parkway",
      "addressLine2": null,
      "city": "Smyrna",
      "zipcode": "30080",
      "stateProvince": {
        "key": "GA",
        "label": "Georgia"
      },
      "subRegion": null,
      "country": {
        "key": "US",
        "label": "United States"
      },
      "region": {
        "key": "NORTH_AMERICA",
        "label": "North America"
      },
      "geolocation": {
        "latitude": 33.882155,
        "longitude": -84.473952
      }
    },
    "awardCategory": {
      "key": "2",
      "label": "2"
    },
    "lat": 33.882155,
    "lng": -84.473952,
    "url": "https://www.hyatt.com/hyatt-place/en-US/atlzg-hyatt-place-atlanta-cobb-galleria"
  },
  {
    "name": "Hyatt Place Atlanta/Alpharetta/Windward Parkway",
    "brand": {
      "key": "PLACE",
      "label": "Hyatt Place",
      "bellhopRoute": "place"
    },
    "location": {
      "addressLine1": "5595 Windward Parkway",
      "addressLine2": null,
      "city": "Alpharetta",
      "zipcode": "30004",
      "stateProvince": {
        "key": "GA",
        "label": "Georgia"
      },
      "subRegion": null,
      "country": {
        "key": "US",
        "label": "United States"
      },
      "region": {
        "key": "NORTH_AMERICA",
        "label": "North America"
      },
      "geolocation": {
        "latitude": 34.086449,
        "longitude": -84.264932
      }
    },
    "awardCategory": {
      "key": "2",
      "label": "2"
    },
    "lat": 34.086449,
    "lng": -84.264932,
    "url": "https://www.hyatt.com/hyatt-place/en-US/atlzi-hyatt-place-atlanta-alpharetta-windward-parkway"
  },
  {
    "name": "Hyatt Place Atlanta/Duluth/Johns Creek",
    "brand": {
      "key": "PLACE",
      "label": "Hyatt Place",
      "bellhopRoute": "place"
    },
    "location": {
      "addressLine1": "11505 Medlock Bridge Road",
      "addressLine2": null,
      "city": "Johns Creek",
      "zipcode": "30097",
      "stateProvince": {
        "key": "GA",
        "label": "Georgia"
      },
      "subRegion": null,
      "country": {
        "key": "US",
        "label": "United States"
      },
      "region": {
        "key": "NORTH_AMERICA",
        "label": "North America"
      },
      "geolocation": {
        "latitude": 34.060788,
        "longitude": -84.171822
      }
    },
    "awardCategory": {
      "key": "1",
      "label": "1"
    },
    "lat": 34.060788,
    "lng": -84.171822,
    "url": "https://www.hyatt.com/hyatt-place/en-US/atlzj-hyatt-place-atlanta-duluth-johns-creek"
  },
  {
    "name": "Hyatt Place Atlanta/Alpharetta/North Point Mall",
    "brand": {
      "key": "PLACE",
      "label": "Hyatt Place",
      "bellhopRoute": "place"
    },
    "location": {
      "addressLine1": "7500 North Point Parkway",
      "addressLine2": null,
      "city": "Alpharetta",
      "zipcode": "30022",
      "stateProvince": {
        "key": "GA",
        "label": "Georgia"
      },
      "subRegion": null,
      "country": {
        "key": "US",
        "label": "United States"
      },
      "region": {
        "key": "NORTH_AMERICA",
        "label": "North America"
      },
      "geolocation": {
        "latitude": 34.041147,
        "longitude": -84.303545
      }
    },
    "awardCategory": {
      "key": "1",
      "label": "1"
    },
    "lat": 34.041147,
    "lng": -84.303545,
    "url": "https://www.hyatt.com/hyatt-place/en-US/atlzm-hyatt-place-atlanta-alpharetta-north-point-mall"
  },
  {
    "name": "Hyatt Place Atlanta/Norcross/Peachtree",
    "brand": {
      "key": "PLACE",
      "label": "Hyatt Place",
      "bellhopRoute": "place"
    },
    "location": {
      "addressLine1": "5600 Peachtree Parkway",
      "addressLine2": null,
      "city": "Norcross",
      "zipcode": "30092",
      "stateProvince": {
        "key": "GA",
        "label": "Georgia"
      },
      "subRegion": null,
      "country": {
        "key": "US",
        "label": "United States"
      },
      "region": {
        "key": "NORTH_AMERICA",
        "label": "North America"
      },
      "geolocation": {
        "latitude": 33.966907,
        "longitude": -84.221963
      }
    },
    "awardCategory": {
      "key": "1",
      "label": "1"
    },
    "lat": 33.966907,
    "lng": -84.221963,
    "url": "https://www.hyatt.com/hyatt-place/en-US/atlzn-hyatt-place-atlanta-norcross-peachtree"
  },
  {
    "name": "Hyatt Place Atlanta Airport-South",
    "brand": {
      "key": "PLACE",
      "label": "Hyatt Place",
      "bellhopRoute": "place"
    },
    "location": {
      "addressLine1": "1899 Sullivan Road",
      "addressLine2": null,
      "city": "College Park",
      "zipcode": "30337",
      "stateProvince": {
        "key": "GA",
        "label": "Georgia"
      },
      "subRegion": null,
      "country": {
        "key": "US",
        "label": "United States"
      },
      "region": {
        "key": "NORTH_AMERICA",
        "label": "North America"
      },
      "geolocation": {
        "latitude": 33.62731,
        "longitude": -84.452564
      }
    },
    "awardCategory": {
      "key": "1",
      "label": "1"
    },
    "lat": 33.62731,
    "lng": -84.452564,
    "url": "https://www.hyatt.com/hyatt-place/en-US/atlzs-hyatt-place-atlanta-airport-south"
  },
  {
    "name": "Hyatt Place Atlanta / Centennial Park",
    "brand": {
      "key": "PLACE",
      "label": "Hyatt Place",
      "bellhopRoute": "place"
    },
    "location": {
      "addressLine1": "300 Luckie St NW ",
      "addressLine2": null,
      "city": "Atlanta",
      "zipcode": "30313",
      "stateProvince": {
        "key": "GA",
        "label": "Georgia"
      },
      "subRegion": null,
      "country": {
        "key": "US",
        "label": "United States"
      },
      "region": {
        "key": "NORTH_AMERICA",
        "label": "North America"
      },
      "geolocation": {
        "latitude": 33.762727,
        "longitude": -84.396039
      }
    },
    "awardCategory": {
      "key": "3",
      "label": "3"
    },
    "lat": 33.762727,
    "lng": -84.396039,
    "url": "https://www.hyatt.com/hyatt-place/en-US/atlzt-hyatt-place-atlanta-centennial-park"
  },
  {
    "name": "Hyatt Place Atlanta / Perimeter Center",
    "brand": {
      "key": "PLACE",
      "label": "Hyatt Place",
      "bellhopRoute": "place"
    },
    "location": {
      "addressLine1": "1232 Hammond Drive NE",
      "addressLine2": null,
      "city": "Dunwoody",
      "zipcode": "30346",
      "stateProvince": {
        "key": "GA",
        "label": "Georgia"
      },
      "subRegion": null,
      "country": {
        "key": "US",
        "label": "United States"
      },
      "region": {
        "key": "NORTH_AMERICA",
        "label": "North America"
      },
      "geolocation": {
        "latitude": 33.92069,
        "longitude": -84.343367
      }
    },
    "awardCategory": {
      "key": "2",
      "label": "2"
    },
    "lat": 33.92069,
    "lng": -84.343367,
    "url": "https://www.hyatt.com/hyatt-place/en-US/atlzy-hyatt-place-atlanta-perimeter-center"
  },
  {
    "name": "Hyatt Regency Amritsar",
    "brand": {
      "key": "REGENCY",
      "label": "Hyatt Regency",
      "bellhopRoute": "regency"
    },
    "location": {
      "addressLine1": "MBM Farms, G.T. Road ",
      "addressLine2": null,
      "city": "Amritsar",
      "zipcode": "143001",
      "stateProvince": {
        "key": "PB",
        "label": "Punjab"
      },
      "subRegion": null,
      "country": {
        "key": "IN",
        "label": "India"
      },
      "region": {
        "key": "ASIA",
        "label": "Asia"
      },
      "geolocation": {
        "latitude": 31.61905,
        "longitude": 74.90898
      }
    },
    "awardCategory": {
      "key": "1",
      "label": "1"
    },
    "lat": 31.61905,
    "lng": 74.90898,
    "url": "https://www.hyatt.com/hyatt-regency/en-US/atqhy-hyatt-regency-amritsar"
  },
  {
    "name": "Hyatt Place Aruba Airport",
    "brand": {
      "key": "PLACE",
      "label": "Hyatt Place",
      "bellhopRoute": "place"
    },
    "location": {
      "addressLine1": "Wayaca 6B",
      "addressLine2": null,
      "city": "Oranjestad",
      "zipcode": "",
      "stateProvince": null,
      "subRegion": null,
      "country": {
        "key": "AW",
        "label": "Aruba"
      },
      "region": {
        "key": "CARIBBEAN",
        "label": "Caribbean"
      },
      "geolocation": {
        "latitude": 12.505186,
        "longitude": -70.004641
      }
    },
    "awardCategory": {
      "key": "3",
      "label": "3"
    },
    "lat": 12.505186,
    "lng": -70.004641,
    "url": "https://www.hyatt.com/hyatt-place/en-US/auaza-hyatt-place-aruba-airport"
  },
  {
    "name": "AluaSun Cala Antena",
    "brand": {
      "key": "ALUA",
      "label": "Alua Hotels & Resorts",
      "bellhopRoute": "alua"
    },
    "location": {
      "addressLine1": "Carrer de Cala Antena, S/N",
      "addressLine2": null,
      "city": "Mallorca",
      "zipcode": "07689",
      "stateProvince": null,
      "subRegion": null,
      "country": {
        "key": "ES",
        "label": "Spain"
      },
      "region": {
        "key": "EUROPE",
        "label": "Europe"
      },
      "geolocation": {
        "latitude": 39.465754,
        "longitude": 3.279778
      }
    },
    "awardCategory": {
      "key": "A0",
      "label": "A"
    },
    "lat": 39.465754,
    "lng": 3.279778,
    "url": "https://www.hyatt.com/en-US/hotel/spain/aluasun-cala-antena/aucan"
  },
  {
    "name": "AluaSun Continental Park",
    "brand": {
      "key": "ALUA",
      "label": "Alua Hotels & Resorts",
      "bellhopRoute": "alua"
    },
    "location": {
      "addressLine1": "Carrer Lola, 4",
      "addressLine2": "Muro",
      "city": "Mallorca",
      "zipcode": "07458",
      "stateProvince": null,
      "subRegion": null,
      "country": {
        "key": "ES",
        "label": "Spain"
      },
      "region": {
        "key": "EUROPE",
        "label": "Europe"
      },
      "geolocation": {
        "latitude": 39.813973,
        "longitude": 3.113504
      }
    },
    "awardCategory": {
      "key": "A0",
      "label": "A"
    },
    "lat": 39.813973,
    "lng": 3.113504,
    "url": "https://www.hyatt.com/en-US/hotel/spain/aluasun-continental-park/aucnp"
  },
  {
    "name": "AluaSun Costa Park",
    "brand": {
      "key": "ALUA",
      "label": "Alua Hotels & Resorts",
      "bellhopRoute": "alua"
    },
    "location": {
      "addressLine1": "Calle El Pinar, 2",
      "addressLine2": "Torremolinos",
      "city": "Malaga",
      "zipcode": "29620",
      "stateProvince": null,
      "subRegion": null,
      "country": {
        "key": "ES",
        "label": "Spain"
      },
      "region": {
        "key": "EUROPE",
        "label": "Europe"
      },
      "geolocation": {
        "latitude": 36.638086,
        "longitude": -4.498477
      }
    },
    "awardCategory": {
      "key": "A0",
      "label": "A"
    },
    "lat": 36.638086,
    "lng": -4.498477,
    "url": "https://www.hyatt.com/en-US/hotel/spain/aluasun-costa-park/auctp"
  },
  {
    "name": "AluaSun Doblemar",
    "brand": {
      "key": "ALUA",
      "label": "Alua Hotels & Resorts",
      "bellhopRoute": "alua"
    },
    "location": {
      "addressLine1": "Gran Vía de la Manga, S/N",
      "addressLine2": null,
      "city": "Murcia",
      "zipcode": "30380",
      "stateProvince": null,
      "subRegion": null,
      "country": {
        "key": "ES",
        "label": "Spain"
      },
      "region": {
        "key": "EUROPE",
        "label": "Europe"
      },
      "geolocation": {
        "latitude": 37.698836,
        "longitude": -0.740017
      }
    },
    "awardCategory": {
      "key": "A0",
      "label": "A"
    },
    "lat": 37.698836,
    "lng": -0.740017,
    "url": "https://www.hyatt.com/en-US/hotel/spain/aluasun-doblemar/audbl"
  },
  {
    "name": "AluaSun Far Menorca",
    "brand": {
      "key": "ALUA",
      "label": "Alua Hotels & Resorts",
      "bellhopRoute": "alua"
    },
    "location": {
      "addressLine1": "8ª Avinguda",
      "addressLine2": "S'Algar",
      "city": "Menorca",
      "zipcode": "07713",
      "stateProvince": null,
      "subRegion": null,
      "country": {
        "key": "ES",
        "label": "Spain"
      },
      "region": {
        "key": "EUROPE",
        "label": "Europe"
      },
      "geolocation": {
        "latitude": 39.833529,
        "longitude": 4.302584
      }
    },
    "awardCategory": {
      "key": "A0",
      "label": "A"
    },
    "lat": 39.833529,
    "lng": 4.302584,
    "url": "https://www.hyatt.com/en-US/hotel/spain/aluasun-far-menorca/aufam"
  },
  {
    "name": "Grand Hyatt Abu Dhabi Hotel & Residences Emirates Pearl",
    "brand": {
      "key": "GRAND",
      "label": "Grand Hyatt",
      "bellhopRoute": "grand"
    },
    "location": {
      "addressLine1": "West Corniche Corniche Road",
      "addressLine2": "PO Box 7309",
      "city": "Abu Dhabi",
      "zipcode": "",
      "stateProvince": null,
      "subRegion": null,
      "country": {
        "key": "AE",
        "label": "United Arab Emirates"
      },
      "region": {
        "key": "MIDDLE_EAST",
        "label": "Middle East"
      },
      "geolocation": {
        "latitude": 24.458078,
        "longitude": 54.320714
      }
    },
    "awardCategory": {
      "key": "4",
      "label": "4"
    },
    "lat": 24.458078,
    "lng": 54.320714,
    "url": "https://www.hyatt.com/grand-hyatt/en-US/auhgh-grand-hyatt-abu-dhabi-hotel-and-residences-emirates-pearl"
  },
  {
    "name": "AluaSun Lago Park",
    "brand": {
      "key": "ALUA",
      "label": "Alua Hotels & Resorts",
      "bellhopRoute": "alua"
    },
    "location": {
      "addressLine1": "Calle Alisios, Urbanization",
      "addressLine2": "Cala en Bosc",
      "city": "Menorca",
      "zipcode": "07769",
      "stateProvince": null,
      "subRegion": null,
      "country": {
        "key": "ES",
        "label": "Spain"
      },
      "region": {
        "key": "EUROPE",
        "label": "Europe"
      },
      "geolocation": {
        "latitude": 39.929886,
        "longitude": 3.833846
      }
    },
    "awardCategory": {
      "key": "A0",
      "label": "A"
    },
    "lat": 39.929886,
    "lng": 3.833846,
    "url": "https://www.hyatt.com/en-US/hotel/spain/aluasun-lago-park/aulgp"
  },
  {
    "name": "AluaSun Lago Rojo",
    "brand": {
      "key": "ALUA",
      "label": "Alua Hotels & Resorts",
      "bellhopRoute": "alua"
    },
    "location": {
      "addressLine1": "Calle Miami, 5",
      "addressLine2": "Torremolinos",
      "city": "Malaga",
      "zipcode": "29620",
      "stateProvince": null,
      "subRegion": null,
      "country": {
        "key": "ES",
        "label": "Spain"
      },
      "region": {
        "key": "EUROPE",
        "label": "Europe"
      },
      "geolocation": {
        "latitude": 36.611286,
        "longitude": -4.503819
      }
    },
    "awardCategory": {
      "key": "A0",
      "label": "A"
    },
    "lat": 36.611286,
    "lng": -4.503819,
    "url": "https://www.hyatt.com/en-US/hotel/spain/aluasun-lago-rojo/aulgr"
  },
  {
    "name": "AluaSun Marbella Park",
    "brand": {
      "key": "ALUA",
      "label": "Alua Hotels & Resorts",
      "bellhopRoute": "alua"
    },
    "location": {
      "addressLine1": "Carretera Nacional km 340",
      "addressLine2": null,
      "city": "Marbella",
      "zipcode": "29604",
      "stateProvince": null,
      "subRegion": null,
      "country": {
        "key": "ES",
        "label": "Spain"
      },
      "region": {
        "key": "EUROPE",
        "label": "Europe"
      },
      "geolocation": {
        "latitude": 36.495352,
        "longitude": -4.772867
      }
    },
    "awardCategory": {
      "key": "A0",
      "label": "A"
    },
    "lat": 36.495352,
    "lng": -4.772867,
    "url": "https://www.hyatt.com/en-US/hotel/spain/aluasun-marbella-park/aumap"
  },
  {
    "name": "AluaSun Mediterraneo",
    "brand": {
      "key": "ALUA",
      "label": "Alua Hotels & Resorts",
      "bellhopRoute": "alua"
    },
    "location": {
      "addressLine1": "7ª Avinguda",
      "addressLine2": "S'Algar",
      "city": "Menorca",
      "zipcode": "07713",
      "stateProvince": null,
      "subRegion": null,
      "country": {
        "key": "ES",
        "label": "Spain"
      },
      "region": {
        "key": "EUROPE",
        "label": "Europe"
      },
      "geolocation": {
        "latitude": 39.839683,
        "longitude": 4.299289
      }
    },
    "awardCategory": {
      "key": "A0",
      "label": "A"
    },
    "lat": 39.839683,
    "lng": 4.299289,
    "url": "https://www.hyatt.com/en-US/hotel/spain/aluasun-mediterraneo/aumed"
  },
  {
    "name": "Hyatt Centric Congress Avenue Austin",
    "brand": {
      "key": "CENTRIC",
      "label": "Hyatt Centric",
      "bellhopRoute": "centric"
    },
    "location": {
      "addressLine1": "721 Congress Avenue",
      "addressLine2": null,
      "city": "Austin",
      "zipcode": "78701",
      "stateProvince": {
        "key": "TX",
        "label": "Texas"
      },
      "subRegion": null,
      "country": {
        "key": "US",
        "label": "United States"
      },
      "region": {
        "key": "NORTH_AMERICA",
        "label": "North America"
      },
      "geolocation": {
        "latitude": 30.269946,
        "longitude": -97.741974
      }
    },
    "awardCategory": {
      "key": "5",
      "label": "5"
    },
    "lat": 30.269946,
    "lng": -97.741974,
    "url": "https://www.hyatt.com/hyatt-centric/en-US/ausct-hyatt-centric-congress-avenue-austin"
  },
  {
    "name": "The Driskill",
    "brand": {
      "key": "UNBOUND",
      "label": "The Unbound Collection by Hyatt",
      "bellhopRoute": "unbound"
    },
    "location": {
      "addressLine1": "604 Brazos Street",
      "addressLine2": null,
      "city": "Austin",
      "zipcode": "78701",
      "stateProvince": {
        "key": "TX",
        "label": "Texas"
      },
      "subRegion": null,
      "country": {
        "key": "US",
        "label": "United States"
      },
      "region": {
        "key": "NORTH_AMERICA",
        "label": "North America"
      },
      "geolocation": {
        "latitude": 30.268068,
        "longitude": -97.741653
      }
    },
    "awardCategory": {
      "key": "6",
      "label": "6"
    },
    "lat": 30.268068,
    "lng": -97.741653,
    "url": "https://www.hyatt.com/unbound-collection/en-US/aushd-the-driskill"
  },
  {
    "name": "Hotel Saint Cecilia, Bunkhouse Hotels",
    "brand": {
      "key": "PARTNERS",
      "label": "Hyatt Partners",
      "bellhopRoute": "partners"
    },
    "location": {
      "addressLine1": "112 Academy Dr",
      "addressLine2": null,
      "city": "Austin",
      "zipcode": "78704",
      "stateProvince": {
        "key": "TX",
        "label": "Texas"
      },
      "subRegion": null,
      "country": {
        "key": "US",
        "label": "United States"
      },
      "region": {
        "key": "NORTH_AMERICA",
        "label": "North America"
      },
      "geolocation": {
        "latitude": 30.252096,
        "longitude": -97.74644
      }
    },
    "awardCategory": null,
    "lat": 30.252096,
    "lng": -97.74644,
    "url": "https://www.hyatt.com/en-US/hotel/texas/hotel-saint-cecilia/auskd"
  },
  {
    "name": "Hotel San José, Bunkhouse Hotels",
    "brand": {
      "key": "PARTNERS",
      "label": "Hyatt Partners",
      "bellhopRoute": "partners"
    },
    "location": {
      "addressLine1": "1316 South Congress Ave",
      "addressLine2": null,
      "city": "Austin",
      "zipcode": "78704",
      "stateProvince": {
        "key": "TX",
        "label": "Texas"
      },
      "subRegion": null,
      "country": {
        "key": "US",
        "label": "United States"
      },
      "region": {
        "key": "NORTH_AMERICA",
        "label": "North America"
      },
      "geolocation": {
        "latitude": 30.250782,
        "longitude": -97.749157
      }
    },
    "awardCategory": null,
    "lat": 30.250782,
    "lng": -97.749157,
    "url": "https://www.hyatt.com/en-US/hotel/texas/hotel-san-jose/auske"
  },
  {
    "name": "Hotel Magdalena, Bunkhouse Hotels",
    "brand": {
      "key": "PARTNERS",
      "label": "Hyatt Partners",
      "bellhopRoute": "partners"
    },
    "location": {
      "addressLine1": "1101 Music Ln",
      "addressLine2": null,
      "city": "Austin",
      "zipcode": "78704",
      "stateProvince": {
        "key": "TX",
        "label": "Texas"
      },
      "subRegion": null,
      "country": {
        "key": "US",
        "label": "United States"
      },
      "region": {
        "key": "NORTH_AMERICA",
        "label": "North America"
      },
      "geolocation": {
        "latitude": 30.252689,
        "longitude": -97.747369
      }
    },
    "awardCategory": null,
    "lat": 30.252689,
    "lng": -97.747369,
    "url": "https://www.hyatt.com/en-US/hotel/texas/hotel-magdalena/auskr"
  },
  {
    "name": "Austin Motel, Bunkhouse Hotels",
    "brand": {
      "key": "PARTNERS",
      "label": "Hyatt Partners",
      "bellhopRoute": "partners"
    },
    "location": {
      "addressLine1": "1220 S Congress Ave",
      "addressLine2": null,
      "city": "Austin",
      "zipcode": "78704",
      "stateProvince": {
        "key": "TX",
        "label": "Texas"
      },
      "subRegion": null,
      "country": {
        "key": "US",
        "label": "United States"
      },
      "region": {
        "key": "NORTH_AMERICA",
        "label": "North America"
      },
      "geolocation": {
        "latitude": 30.25193,
        "longitude": -97.749335
      }
    },
    "awardCategory": null,
    "lat": 30.25193,
    "lng": -97.749335,
    "url": "https://www.hyatt.com/en-US/hotel/texas/austin-motel/ausky"
  },
  {
    "name": "Carpenter Hotel, Bunkhouse Hotels",
    "brand": {
      "key": "PARTNERS",
      "label": "Hyatt Partners",
      "bellhopRoute": "partners"
    },
    "location": {
      "addressLine1": "400 Josephine St",
      "addressLine2": null,
      "city": "Austin",
      "zipcode": "78704",
      "stateProvince": {
        "key": "TX",
        "label": "Texas"
      },
      "subRegion": null,
      "country": {
        "key": "US",
        "label": "United States"
      },
      "region": {
        "key": "NORTH_AMERICA",
        "label": "North America"
      },
      "geolocation": {
        "latitude": 30.262393,
        "longitude": -97.758633
      }
    },
    "awardCategory": null,
    "lat": 30.262393,
    "lng": -97.758633,
    "url": "https://www.hyatt.com/en-US/hotel/texas/carpenter-hotel/auskz"
  },
  {
    "name": "Hyatt Regency Lost Pines Resort and Spa",
    "brand": {
      "key": "REGENCY",
      "label": "Hyatt Regency",
      "bellhopRoute": "regency"
    },
    "location": {
      "addressLine1": "575 Hyatt Lost Pines Road",
      "addressLine2": null,
      "city": "Lost Pines",
      "zipcode": "78612",
      "stateProvince": {
        "key": "TX",
        "label": "Texas"
      },
      "subRegion": null,
      "country": {
        "key": "US",
        "label": "United States"
      },
      "region": {
        "key": "NORTH_AMERICA",
        "label": "North America"
      },
      "geolocation": {
        "latitude": 30.166208,
        "longitude": -97.444921
      }
    },
    "awardCategory": {
      "key": "6",
      "label": "6"
    },
    "lat": 30.166208,
    "lng": -97.444921,
    "url": "https://www.hyatt.com/hyatt-regency/en-US/auslp-hyatt-regency-lost-pines-resort-and-spa"
  },
  {
    "name": "Miraval Austin Resort and Spa",
    "brand": {
      "key": "MIRAVAL",
      "label": "Miraval",
      "bellhopRoute": "miraval"
    },
    "location": {
      "addressLine1": "13500 FM2769",
      "addressLine2": null,
      "city": "Austin",
      "zipcode": "78726",
      "stateProvince": {
        "key": "TX",
        "label": "Texas"
      },
      "subRegion": null,
      "country": {
        "key": "US",
        "label": "United States"
      },
      "region": {
        "key": "NORTH_AMERICA",
        "label": "North America"
      },
      "geolocation": {
        "latitude": 30.44395,
        "longitude": -97.865036
      }
    },
    "awardCategory": null,
    "lat": 30.44395,
    "lng": -97.865036,
    "url": "https://www.hyatt.com/en-US/hotel/texas/miraval-austin-resort-and-spa/ausob"
  },
  {
    "name": "Hyatt Regency Austin",
    "brand": {
      "key": "REGENCY",
      "label": "Hyatt Regency",
      "bellhopRoute": "regency"
    },
    "location": {
      "addressLine1": "208 Barton Springs",
      "addressLine2": null,
      "city": "Austin",
      "zipcode": "78704",
      "stateProvince": {
        "key": "TX",
        "label": "Texas"
      },
      "subRegion": null,
      "country": {
        "key": "US",
        "label": "United States"
      },
      "region": {
        "key": "NORTH_AMERICA",
        "label": "North America"
      },
      "geolocation": {
        "latitude": 30.260892,
        "longitude": -97.747206
      }
    },
    "awardCategory": {
      "key": "4",
      "label": "4"
    },
    "lat": 30.260892,
    "lng": -97.747206,
    "url": "https://www.hyatt.com/hyatt-regency/en-US/ausra-hyatt-regency-austin"
  },
  {
    "name": "tommie Austin",
    "brand": {
      "key": "JDV",
      "label": "JdV by Hyatt",
      "bellhopRoute": "jdv"
    },
    "location": {
      "addressLine1": "506 San Jacinto Blvd",
      "addressLine2": "",
      "city": "Austin",
      "zipcode": "78701",
      "stateProvince": {
        "key": "TX",
        "label": "Texas"
      },
      "subRegion": null,
      "country": {
        "key": "US",
        "label": "United States"
      },
      "region": {
        "key": "NORTH_AMERICA",
        "label": "North America"
      },
      "geolocation": {
        "latitude": 30.266982,
        "longitude": -97.741002
      }
    },
    "awardCategory": {
      "key": "4",
      "label": "4"
    },
    "lat": 30.266982,
    "lng": -97.741002,
    "url": "https://www.hyatt.com/jdv-by-hyatt/en-US/auste-tommie-austin"
  },
  {
    "name": "Thompson Austin",
    "brand": {
      "key": "THOMPSON",
      "label": "Thompson Hotels",
      "bellhopRoute": "thompson"
    },
    "location": {
      "addressLine1": "506 San Jacinto Blvd",
      "addressLine2": null,
      "city": "Austin",
      "zipcode": "78701",
      "stateProvince": {
        "key": "TX",
        "label": "Texas"
      },
      "subRegion": null,
      "country": {
        "key": "US",
        "label": "United States"
      },
      "region": {
        "key": "NORTH_AMERICA",
        "label": "North America"
      },
      "geolocation": {
        "latitude": 30.266982,
        "longitude": -97.741002
      }
    },
    "awardCategory": {
      "key": "6",
      "label": "6"
    },
    "lat": 30.266982,
    "lng": -97.741002,
    "url": "https://www.hyatt.com/thompson-hotels/en-US/austh-thompson-austin"
  },
  {
    "name": "Hyatt House Austin/Downtown",
    "brand": {
      "key": "HOUSE",
      "label": "Hyatt House",
      "bellhopRoute": "house"
    },
    "location": {
      "addressLine1": "901 Neches Street",
      "addressLine2": null,
      "city": "Austin",
      "zipcode": "78701",
      "stateProvince": {
        "key": "TX",
        "label": "Texas"
      },
      "subRegion": null,
      "country": {
        "key": "US",
        "label": "United States"
      },
      "region": {
        "key": "NORTH_AMERICA",
        "label": "North America"
      },
      "geolocation": {
        "latitude": 30.269721,
        "longitude": -97.736927
      }
    },
    "awardCategory": {
      "key": "3",
      "label": "3"
    },
    "lat": 30.269721,
    "lng": -97.736927,
    "url": "https://www.hyatt.com/hyatt-house/en-US/ausxd-hyatt-house-austin-downtown"
  },
  {
    "name": "Hyatt Place Austin / Arboretum",
    "brand": {
      "key": "PLACE",
      "label": "Hyatt Place",
      "bellhopRoute": "place"
    },
    "location": {
      "addressLine1": "3612 Tudor Boulevard",
      "addressLine2": null,
      "city": "Austin",
      "zipcode": "78759",
      "stateProvince": {
        "key": "TX",
        "label": "Texas"
      },
      "subRegion": null,
      "country": {
        "key": "US",
        "label": "United States"
      },
      "region": {
        "key": "NORTH_AMERICA",
        "label": "North America"
      },
      "geolocation": {
        "latitude": 30.384778,
        "longitude": -97.737507
      }
    },
    "awardCategory": {
      "key": "2",
      "label": "2"
    },
    "lat": 30.384778,
    "lng": -97.737507,
    "url": "https://www.hyatt.com/hyatt-place/en-US/ausza-hyatt-place-austin-arboretum-domain-area"
  },
  {
    "name": "Hyatt Place Austin / Cedar Park",
    "brand": {
      "key": "PLACE",
      "label": "Hyatt Place",
      "bellhopRoute": "place"
    },
    "location": {
      "addressLine1": "1315 East New Hope Drive",
      "addressLine2": null,
      "city": "Cedar Park",
      "zipcode": "78641",
      "stateProvince": {
        "key": "TX",
        "label": "Texas"
      },
      "subRegion": null,
      "country": {
        "key": "US",
        "label": "United States"
      },
      "region": {
        "key": "NORTH_AMERICA",
        "label": "North America"
      },
      "geolocation": {
        "latitude": 30.536629,
        "longitude": -97.814125
      }
    },
    "awardCategory": {
      "key": "2",
      "label": "2"
    },
    "lat": 30.536629,
    "lng": -97.814125,
    "url": "https://www.hyatt.com/hyatt-place/en-US/auszc-hyatt-place-austin-cedar-park"
  },
  {
    "name": "Hyatt Place Austin Downtown",
    "brand": {
      "key": "PLACE",
      "label": "Hyatt Place",
      "bellhopRoute": "place"
    },
    "location": {
      "addressLine1": "211 East 3rd Street",
      "addressLine2": null,
      "city": "Austin",
      "zipcode": "78701",
      "stateProvince": {
        "key": "TX",
        "label": "Texas"
      },
      "subRegion": null,
      "country": {
        "key": "US",
        "label": "United States"
      },
      "region": {
        "key": "NORTH_AMERICA",
        "label": "North America"
      },
      "geolocation": {
        "latitude": 30.264865,
        "longitude": -97.742403
      }
    },
    "awardCategory": {
      "key": "4",
      "label": "4"
    },
    "lat": 30.264865,
    "lng": -97.742403,
    "url": "https://www.hyatt.com/hyatt-place/en-US/auszd-hyatt-place-austin-downtown"
  },
  {
    "name": "Hyatt Place Austin Airport",
    "brand": {
      "key": "PLACE",
      "label": "Hyatt Place",
      "bellhopRoute": "place"
    },
    "location": {
      "addressLine1": "9532 Spirit of Austin Lane",
      "addressLine2": null,
      "city": "Austin",
      "zipcode": "78719",
      "stateProvince": {
        "key": "TX",
        "label": "Texas"
      },
      "subRegion": null,
      "country": {
        "key": "US",
        "label": "United States"
      },
      "region": {
        "key": "NORTH_AMERICA",
        "label": "North America"
      },
      "geolocation": {
        "latitude": 30.210919,
        "longitude": -97.666301
      }
    },
    "awardCategory": {
      "key": "3",
      "label": "3"
    },
    "lat": 30.210919,
    "lng": -97.666301,
    "url": "https://www.hyatt.com/hyatt-place/en-US/auszi-hyatt-place-austin-airport"
  },
  {
    "name": "Hyatt Place Austin / Lake Travis / Four Points",
    "brand": {
      "key": "PLACE",
      "label": "Hyatt Place",
      "bellhopRoute": "place"
    },
    "location": {
      "addressLine1": "7300 N FM 620",
      "addressLine2": null,
      "city": "Austin",
      "zipcode": "78726",
      "stateProvince": {
        "key": "TX",
        "label": "Texas"
      },
      "subRegion": null,
      "country": {
        "key": "US",
        "label": "United States"
      },
      "region": {
        "key": "NORTH_AMERICA",
        "label": "North America"
      },
      "geolocation": {
        "latitude": 30.405073,
        "longitude": -97.854444
      }
    },